[
  {
    "id": "mercury_manley",
    "name": "Manley",
    "body": "mercury",
    "category": "Crater",
    "lat": -10.53,
    "lon": 103.39,
    "diameter_km": null,
    "origin": null,
    "keywords": [
      "mercury",
      "crater",
      "manley"
    ]
  },
  {
    "id": "mercury_morrison",
    "name": "Morrison",
    "body": "mercury",
    "category": "Crater",
    "lat": 79.66,
    "lon": -127.43,
    "diameter_km": null,
    "origin": null,
    "keywords": [
      "mercury",
      "crater",
      "morrison"
    ]
  },
  {
    "id": "mercury_sontag",
    "name": "Sontag",
    "body": "mercury",
    "category": "Crater",
    "lat": 36.59,
    "lon": 166.66,
    "diameter_km": null,
    "origin": null,
    "keywords": [
      "mercury",
      "crater",
      "sontag"
    ]
  },
  {
    "id": "mercury_bulsara",
    "name": "Bulsara",
    "body": "mercury",
    "category": "Crater",
    "lat": -34.16,
    "lon": 60.0,
    "diameter_km": null,
    "origin": null,
    "keywords": [
      "mercury",
      "crater",
      "bulsara"
    ]
  },
  {
    "id": "mercury_piazzolla",
    "name": "Piazzolla",
    "body": "mercury",
    "category": "Crater",
    "lat": 34.38,
    "lon": -0.42,
    "diameter_km": null,
    "origin": null,
    "keywords": [
      "mercury",
      "crater",
      "piazzolla"
    ]
  },
  {
    "id": "mercury_makeba",
    "name": "Makeba",
    "body": "mercury",
    "category": "Crater",
    "lat": 14.22,
    "lon": -1.40999999999997,
    "diameter_km": null,
    "origin": null,
    "keywords": [
      "mercury",
      "crater",
      "makeba"
    ]
  },
  {
    "id": "mercury_truffaut",
    "name": "Truffaut",
    "body": "mercury",
    "category": "Crater",
    "lat": 13.49,
    "lon": -63.21,
    "diameter_km": null,
    "origin": null,
    "keywords": [
      "mercury",
      "crater",
      "truffaut"
    ]
  },
  {
    "id": "mercury_nasir",
    "name": "Nasir",
    "body": "mercury",
    "category": "Crater",
    "lat": -20.33,
    "lon": 26.7,
    "diameter_km": null,
    "origin": null,
    "keywords": [
      "mercury",
      "crater",
      "nasir"
    ]
  },
  {
    "id": "mercury_masuka",
    "name": "Masuka",
    "body": "mercury",
    "category": "Crater",
    "lat": 32.0,
    "lon": -70.24,
    "diameter_km": null,
    "origin": null,
    "keywords": [
      "mercury",
      "crater",
      "masuka"
    ]
  },
  {
    "id": "mercury_carvalho",
    "name": "Carvalho",
    "body": "mercury",
    "category": "Crater",
    "lat": 26.82,
    "lon": -51.61,
    "diameter_km": null,
    "origin": null,
    "keywords": [
      "mercury",
      "crater",
      "carvalho"
    ]
  },
  {
    "id": "mercury_motonobu",
    "name": "Motonobu",
    "body": "mercury",
    "category": "Crater",
    "lat": 0.78,
    "lon": -65.32,
    "diameter_km": null,
    "origin": null,
    "keywords": [
      "mercury",
      "crater",
      "motonobu"
    ]
  },
  {
    "id": "mercury_stoddart",
    "name": "Stoddart",
    "body": "mercury",
    "category": "Crater",
    "lat": -12.17,
    "lon": -85.66,
    "diameter_km": null,
    "origin": null,
    "keywords": [
      "mercury",
      "crater",
      "stoddart"
    ]
  },
  {
    "id": "mercury_ictinus",
    "name": "Ictinus",
    "body": "mercury",
    "category": "Crater",
    "lat": -79.56,
    "lon": -174.24,
    "diameter_km": null,
    "origin": null,
    "keywords": [
      "mercury",
      "crater",
      "ictinus"
    ]
  },
  {
    "id": "mercury_endurance_rupes",
    "name": "Endurance Rupes",
    "body": "mercury",
    "category": "Rupes",
    "lat": 21.6,
    "lon": 142.19,
    "diameter_km": null,
    "origin": null,
    "keywords": [
      "mercury",
      "rupes",
      "endurance rupes"
    ]
  },
  {
    "id": "mercury_vejas_rupes",
    "name": "Vejas Rupes",
    "body": "mercury",
    "category": "Rupes",
    "lat": 35.71,
    "lon": -162.25,
    "diameter_km": null,
    "origin": null,
    "keywords": [
      "mercury",
      "rupes",
      "vejas rupes"
    ]
  },
  {
    "id": "mercury_codesido",
    "name": "Codesido",
    "body": "mercury",
    "category": "Crater",
    "lat": -68.19,
    "lon": 153.01,
    "diameter_km": null,
    "origin": null,
    "keywords": [
      "mercury",
      "crater",
      "codesido"
    ]
  },
  {
    "id": "mercury_wu_shujuan",
    "name": "Wu Shujuan",
    "body": "mercury",
    "category": "Crater",
    "lat": -70.8,
    "lon": 13.27,
    "diameter_km": null,
    "origin": null,
    "keywords": [
      "mercury",
      "crater",
      "wu shujuan"
    ]
  },
  {
    "id": "mercury_freire",
    "name": "Freire",
    "body": "mercury",
    "category": "Crater",
    "lat": -73.36,
    "lon": 145.54,
    "diameter_km": null,
    "origin": null,
    "keywords": [
      "mercury",
      "crater",
      "freire"
    ]
  },
  {
    "id": "mercury_el_husseini",
    "name": "El Husseini",
    "body": "mercury",
    "category": "Crater",
    "lat": -75.34,
    "lon": 26.66,
    "diameter_km": null,
    "origin": null,
    "keywords": [
      "mercury",
      "crater",
      "el husseini"
    ]
  },
  {
    "id": "mercury_bilokur",
    "name": "Bilokur",
    "body": "mercury",
    "category": "Crater",
    "lat": -0.79,
    "lon": -108.33,
    "diameter_km": null,
    "origin": null,
    "keywords": [
      "mercury",
      "crater",
      "bilokur"
    ]
  },
  {
    "id": "mercury_asawa",
    "name": "Asawa",
    "body": "mercury",
    "category": "Crater",
    "lat": 27.26,
    "lon": 44.72,
    "diameter_km": null,
    "origin": null,
    "keywords": [
      "mercury",
      "crater",
      "asawa"
    ]
  },
  {
    "id": "mercury_halim",
    "name": "Halim",
    "body": "mercury",
    "category": "Crater",
    "lat": 48.87,
    "lon": -100.94,
    "diameter_km": null,
    "origin": null,
    "keywords": [
      "mercury",
      "crater",
      "halim"
    ]
  },
  {
    "id": "mercury_le_guin",
    "name": "Le Guin",
    "body": "mercury",
    "category": "Crater",
    "lat": -18.76,
    "lon": -102.74,
    "diameter_km": null,
    "origin": null,
    "keywords": [
      "mercury",
      "crater",
      "le guin"
    ]
  },
  {
    "id": "mercury_volasiga_rupes",
    "name": "Volasiga Rupes",
    "body": "mercury",
    "category": "Rupes",
    "lat": -36.22,
    "lon": -146.0,
    "diameter_km": null,
    "origin": null,
    "keywords": [
      "mercury",
      "rupes",
      "volasiga rupes"
    ]
  },
  {
    "id": "mercury_italica_rupes",
    "name": "Italica Rupes",
    "body": "mercury",
    "category": "Rupes",
    "lat": -42.42,
    "lon": -139.63,
    "diameter_km": null,
    "origin": null,
    "keywords": [
      "mercury",
      "rupes",
      "italica rupes"
    ]
  },
  {
    "id": "mercury_madu_facula",
    "name": "Madu Facula",
    "body": "mercury",
    "category": "Crater",
    "lat": -21.24,
    "lon": -74.87,
    "diameter_km": null,
    "origin": null,
    "keywords": [
      "mercury",
      "crater",
      "madu facula"
    ]
  },
  {
    "id": "mercury_ngu_facula",
    "name": "Ngu Facula",
    "body": "mercury",
    "category": "Crater",
    "lat": -22.77,
    "lon": -90.85,
    "diameter_km": null,
    "origin": null,
    "keywords": [
      "mercury",
      "crater",
      "ngu facula"
    ]
  },
  {
    "id": "mercury_ahas_facula",
    "name": "Ahas Facula",
    "body": "mercury",
    "category": "Crater",
    "lat": -21.37,
    "lon": -89.4,
    "diameter_km": null,
    "origin": null,
    "keywords": [
      "mercury",
      "crater",
      "ahas facula"
    ]
  },
  {
    "id": "mercury_serp_facula",
    "name": "Serp Facula",
    "body": "mercury",
    "category": "Crater",
    "lat": 3.9,
    "lon": 50.94,
    "diameter_km": null,
    "origin": null,
    "keywords": [
      "mercury",
      "crater",
      "serp facula"
    ]
  },
  {
    "id": "mercury_mahsati",
    "name": "Mahsati",
    "body": "mercury",
    "category": "Crater",
    "lat": 39.57,
    "lon": 109.71,
    "diameter_km": null,
    "origin": null,
    "keywords": [
      "mercury",
      "crater",
      "mahsati"
    ]
  },
  {
    "id": "mercury_we’wha",
    "name": "We’wha",
    "body": "mercury",
    "category": "Crater",
    "lat": -42.57,
    "lon": -151.32,
    "diameter_km": null,
    "origin": null,
    "keywords": [
      "mercury",
      "crater",
      "we’wha"
    ]
  },
  {
    "id": "mercury_lucena",
    "name": "Lucena",
    "body": "mercury",
    "category": "Crater",
    "lat": -25.21,
    "lon": -156.1,
    "diameter_km": null,
    "origin": null,
    "keywords": [
      "mercury",
      "crater",
      "lucena"
    ]
  },
  {
    "id": "mercury_guinness",
    "name": "Guinness",
    "body": "mercury",
    "category": "Crater",
    "lat": 15.79,
    "lon": 93.72,
    "diameter_km": null,
    "origin": null,
    "keywords": [
      "mercury",
      "crater",
      "guinness"
    ]
  },
  {
    "id": "mercury_rainey",
    "name": "Rainey",
    "body": "mercury",
    "category": "Crater",
    "lat": -33.55,
    "lon": -39.56,
    "diameter_km": null,
    "origin": null,
    "keywords": [
      "mercury",
      "crater",
      "rainey"
    ]
  },
  {
    "id": "mercury_price",
    "name": "Price",
    "body": "mercury",
    "category": "Crater",
    "lat": 15.15,
    "lon": 59.16,
    "diameter_km": null,
    "origin": null,
    "keywords": [
      "mercury",
      "crater",
      "price"
    ]
  },
  {
    "id": "mercury_traba",
    "name": "Traba",
    "body": "mercury",
    "category": "Crater",
    "lat": 5.56,
    "lon": -117.53,
    "diameter_km": null,
    "origin": null,
    "keywords": [
      "mercury",
      "crater",
      "traba"
    ]
  },
  {
    "id": "mercury_baltica_rupes",
    "name": "Baltica Rupes",
    "body": "mercury",
    "category": "Rupes",
    "lat": -4.48,
    "lon": 56.52,
    "diameter_km": null,
    "origin": null,
    "keywords": [
      "mercury",
      "rupes",
      "baltica rupes"
    ]
  },
  {
    "id": "mercury_lance_rupes",
    "name": "Lance Rupes",
    "body": "mercury",
    "category": "Rupes",
    "lat": -4.23,
    "lon": 177.4,
    "diameter_km": null,
    "origin": null,
    "keywords": [
      "mercury",
      "rupes",
      "lance rupes"
    ]
  },
  {
    "id": "mercury_turgenev",
    "name": "Turgenev",
    "body": "mercury",
    "category": "Crater",
    "lat": 65.6786,
    "lon": -136.2565,
    "diameter_km": null,
    "origin": null,
    "keywords": [
      "mercury",
      "crater",
      "turgenev"
    ]
  },
  {
    "id": "mercury_caduceata",
    "name": "Caduceata",
    "body": "mercury",
    "category": "Crater",
    "lat": 45.0001,
    "lon": -134.9999,
    "diameter_km": null,
    "origin": null,
    "keywords": [
      "mercury",
      "crater",
      "caduceata"
    ]
  },
  {
    "id": "mercury_solitudo_iovis",
    "name": "Solitudo Iovis",
    "body": "mercury",
    "category": "Crater",
    "lat": 0.0,
    "lon": 0.0001,
    "diameter_km": null,
    "origin": null,
    "keywords": [
      "mercury",
      "crater",
      "solitudo iovis"
    ]
  },
  {
    "id": "mercury_solitudo_admetei",
    "name": "Solitudo Admetei",
    "body": "mercury",
    "category": "Crater",
    "lat": 55.0001,
    "lon": -89.9999,
    "diameter_km": null,
    "origin": null,
    "keywords": [
      "mercury",
      "crater",
      "solitudo admetei"
    ]
  },
  {
    "id": "mercury_gallia",
    "name": "Gallia",
    "body": "mercury",
    "category": "Crater",
    "lat": 40.0001,
    "lon": -119.9999,
    "diameter_km": null,
    "origin": null,
    "keywords": [
      "mercury",
      "crater",
      "gallia"
    ]
  },
  {
    "id": "mercury_solitudo_argiphontae",
    "name": "Solitudo Argiphontae",
    "body": "mercury",
    "category": "Crater",
    "lat": -10.0,
    "lon": 25.0001,
    "diameter_km": null,
    "origin": null,
    "keywords": [
      "mercury",
      "crater",
      "solitudo argiphontae"
    ]
  },
  {
    "id": "mercury_pleias",
    "name": "Pleias",
    "body": "mercury",
    "category": "Crater",
    "lat": 15.0001,
    "lon": -139.9999,
    "diameter_km": null,
    "origin": null,
    "keywords": [
      "mercury",
      "crater",
      "pleias"
    ]
  },
  {
    "id": "mercury_solitudo_neptuni",
    "name": "Solitudo Neptuni",
    "body": "mercury",
    "category": "Crater",
    "lat": 30.0001,
    "lon": -149.9999,
    "diameter_km": null,
    "origin": null,
    "keywords": [
      "mercury",
      "crater",
      "solitudo neptuni"
    ]
  },
  {
    "id": "mercury_solitudo_persephones",
    "name": "Solitudo Persephones",
    "body": "mercury",
    "category": "Crater",
    "lat": -41.0,
    "lon": 135.0001,
    "diameter_km": null,
    "origin": null,
    "keywords": [
      "mercury",
      "crater",
      "solitudo persephones"
    ]
  },
  {
    "id": "mercury_adventure_rupes",
    "name": "Adventure Rupes",
    "body": "mercury",
    "category": "Rupes",
    "lat": -65.4806,
    "lon": -65.3002,
    "diameter_km": null,
    "origin": null,
    "keywords": [
      "mercury",
      "rupes",
      "adventure rupes"
    ]
  },
  {
    "id": "mercury_carnegie_rupes",
    "name": "Carnegie Rupes",
    "body": "mercury",
    "category": "Rupes",
    "lat": 58.5243,
    "lon": -53.2463,
    "diameter_km": null,
    "origin": null,
    "keywords": [
      "mercury",
      "rupes",
      "carnegie rupes"
    ]
  },
  {
    "id": "mercury_endeavour_rupes",
    "name": "Endeavour Rupes",
    "body": "mercury",
    "category": "Rupes",
    "lat": 38.3597,
    "lon": -31.3808,
    "diameter_km": null,
    "origin": null,
    "keywords": [
      "mercury",
      "rupes",
      "endeavour rupes"
    ]
  },
  {
    "id": "mercury_goldstone_catena",
    "name": "Goldstone Catena",
    "body": "mercury",
    "category": "Catena",
    "lat": -15.6248,
    "lon": -32.0235,
    "diameter_km": null,
    "origin": null,
    "keywords": [
      "mercury",
      "catena",
      "goldstone catena"
    ]
  },
  {
    "id": "mercury_apollonia",
    "name": "Apollonia",
    "body": "mercury",
    "category": "Crater",
    "lat": 45.0001,
    "lon": 45.0001,
    "diameter_km": null,
    "origin": null,
    "keywords": [
      "mercury",
      "crater",
      "apollonia"
    ]
  },
  {
    "id": "mercury_australia",
    "name": "Australia",
    "body": "mercury",
    "category": "Crater",
    "lat": -72.5,
    "lon": 0.0001,
    "diameter_km": null,
    "origin": null,
    "keywords": [
      "mercury",
      "crater",
      "australia"
    ]
  },
  {
    "id": "mercury_aurora",
    "name": "Aurora",
    "body": "mercury",
    "category": "Crater",
    "lat": 45.0001,
    "lon": -89.9999,
    "diameter_km": null,
    "origin": null,
    "keywords": [
      "mercury",
      "crater",
      "aurora"
    ]
  },
  {
    "id": "mercury_borea",
    "name": "Borea",
    "body": "mercury",
    "category": "Crater",
    "lat": 75.0001,
    "lon": 0.0001,
    "diameter_km": null,
    "origin": null,
    "keywords": [
      "mercury",
      "crater",
      "borea"
    ]
  },
  {
    "id": "mercury_solitudo_phoenicis",
    "name": "Solitudo Phoenicis",
    "body": "mercury",
    "category": "Crater",
    "lat": 25.0001,
    "lon": 135.0001,
    "diameter_km": null,
    "origin": null,
    "keywords": [
      "mercury",
      "crater",
      "solitudo phoenicis"
    ]
  },
  {
    "id": "mercury_solitudo_promethei",
    "name": "Solitudo Promethei",
    "body": "mercury",
    "category": "Crater",
    "lat": -45.0,
    "lon": -142.4999,
    "diameter_km": null,
    "origin": null,
    "keywords": [
      "mercury",
      "crater",
      "solitudo promethei"
    ]
  },
  {
    "id": "mercury_antoniadi_dorsum",
    "name": "Antoniadi Dorsum",
    "body": "mercury",
    "category": "Dorsum",
    "lat": 27.1971,
    "lon": -29.6507,
    "diameter_km": null,
    "origin": null,
    "keywords": [
      "mercury",
      "dorsum",
      "antoniadi dorsum"
    ]
  },
  {
    "id": "mercury_astrolabe_rupes",
    "name": "Astrolabe Rupes",
    "body": "mercury",
    "category": "Rupes",
    "lat": -42.5537,
    "lon": -70.8975,
    "diameter_km": null,
    "origin": null,
    "keywords": [
      "mercury",
      "rupes",
      "astrolabe rupes"
    ]
  },
  {
    "id": "mercury_fram_rupes",
    "name": "Fram Rupes",
    "body": "mercury",
    "category": "Rupes",
    "lat": -57.6826,
    "lon": -93.2033,
    "diameter_km": null,
    "origin": null,
    "keywords": [
      "mercury",
      "rupes",
      "fram rupes"
    ]
  },
  {
    "id": "mercury_tricrena",
    "name": "Tricrena",
    "body": "mercury",
    "category": "Crater",
    "lat": 0.0,
    "lon": -35.9999,
    "diameter_km": null,
    "origin": null,
    "keywords": [
      "mercury",
      "crater",
      "tricrena"
    ]
  },
  {
    "id": "mercury_heliocaminus",
    "name": "Heliocaminus",
    "body": "mercury",
    "category": "Crater",
    "lat": 40.0001,
    "lon": -169.9999,
    "diameter_km": null,
    "origin": null,
    "keywords": [
      "mercury",
      "crater",
      "heliocaminus"
    ]
  },
  {
    "id": "mercury_hesperis",
    "name": "Hesperis",
    "body": "mercury",
    "category": "Crater",
    "lat": -45.0,
    "lon": 5.0001,
    "diameter_km": null,
    "origin": null,
    "keywords": [
      "mercury",
      "crater",
      "hesperis"
    ]
  },
  {
    "id": "mercury_gjöa_rupes",
    "name": "Gjöa Rupes",
    "body": "mercury",
    "category": "Rupes",
    "lat": -66.8911,
    "lon": -158.5019,
    "diameter_km": null,
    "origin": null,
    "keywords": [
      "mercury",
      "rupes",
      "gjöa rupes"
    ]
  },
  {
    "id": "mercury_heemskerck_rupes",
    "name": "Heemskerck Rupes",
    "body": "mercury",
    "category": "Rupes",
    "lat": 27.299,
    "lon": -124.313,
    "diameter_km": null,
    "origin": null,
    "keywords": [
      "mercury",
      "rupes",
      "heemskerck rupes"
    ]
  },
  {
    "id": "mercury_hero_rupes",
    "name": "Hero Rupes",
    "body": "mercury",
    "category": "Rupes",
    "lat": -58.7188,
    "lon": -171.6965,
    "diameter_km": null,
    "origin": null,
    "keywords": [
      "mercury",
      "rupes",
      "hero rupes"
    ]
  },
  {
    "id": "mercury_santa_maría_rupes",
    "name": "Santa María Rupes",
    "body": "mercury",
    "category": "Rupes",
    "lat": 5.8107,
    "lon": -20.0024,
    "diameter_km": null,
    "origin": null,
    "keywords": [
      "mercury",
      "rupes",
      "santa maría rupes"
    ]
  },
  {
    "id": "mercury_schiaparelli_dorsum",
    "name": "Schiaparelli Dorsum",
    "body": "mercury",
    "category": "Dorsum",
    "lat": 23.2584,
    "lon": -164.2988,
    "diameter_km": null,
    "origin": null,
    "keywords": [
      "mercury",
      "dorsum",
      "schiaparelli dorsum"
    ]
  },
  {
    "id": "mercury_zeehaen_rupes",
    "name": "Zeehaen Rupes",
    "body": "mercury",
    "category": "Rupes",
    "lat": 49.6427,
    "lon": -158.1516,
    "diameter_km": null,
    "origin": null,
    "keywords": [
      "mercury",
      "rupes",
      "zeehaen rupes"
    ]
  },
  {
    "id": "mercury_pieria",
    "name": "Pieria",
    "body": "mercury",
    "category": "Crater",
    "lat": 0.0,
    "lon": 90.0001,
    "diameter_km": null,
    "origin": null,
    "keywords": [
      "mercury",
      "crater",
      "pieria"
    ]
  },
  {
    "id": "mercury_cyllene",
    "name": "Cyllene",
    "body": "mercury",
    "category": "Crater",
    "lat": -41.0,
    "lon": 90.0001,
    "diameter_km": null,
    "origin": null,
    "keywords": [
      "mercury",
      "crater",
      "cyllene"
    ]
  },
  {
    "id": "mercury_liguria",
    "name": "Liguria",
    "body": "mercury",
    "category": "Crater",
    "lat": 45.0001,
    "lon": 135.0001,
    "diameter_km": null,
    "origin": null,
    "keywords": [
      "mercury",
      "crater",
      "liguria"
    ]
  },
  {
    "id": "mercury_mirni_rupes",
    "name": "Mirni Rupes",
    "body": "mercury",
    "category": "Rupes",
    "lat": -38.5416,
    "lon": -39.0077,
    "diameter_km": null,
    "origin": null,
    "keywords": [
      "mercury",
      "rupes",
      "mirni rupes"
    ]
  },
  {
    "id": "mercury_calypso_rupes",
    "name": "Calypso Rupes",
    "body": "mercury",
    "category": "Rupes",
    "lat": 19.5316,
    "lon": 43.5213,
    "diameter_km": null,
    "origin": null,
    "keywords": [
      "mercury",
      "rupes",
      "calypso rupes"
    ]
  },
  {
    "id": "mercury_chao_meng-fu",
    "name": "Chao Meng-Fu",
    "body": "mercury",
    "category": "Crater",
    "lat": -88.4244,
    "lon": -156.3585,
    "diameter_km": null,
    "origin": null,
    "keywords": [
      "mercury",
      "crater",
      "chao meng-fu"
    ]
  },
  {
    "id": "mercury_zarya_rupes",
    "name": "Zarya Rupes",
    "body": "mercury",
    "category": "Rupes",
    "lat": -42.729,
    "lon": -20.4187,
    "diameter_km": null,
    "origin": null,
    "keywords": [
      "mercury",
      "rupes",
      "zarya rupes"
    ]
  },
  {
    "id": "mercury_pentas",
    "name": "Pentas",
    "body": "mercury",
    "category": "Crater",
    "lat": 5.0001,
    "lon": 50.0001,
    "diameter_km": null,
    "origin": null,
    "keywords": [
      "mercury",
      "crater",
      "pentas"
    ]
  },
  {
    "id": "mercury_phaethontias",
    "name": "Phaethontias",
    "body": "mercury",
    "category": "Crater",
    "lat": 0.0,
    "lon": -166.9999,
    "diameter_km": null,
    "origin": null,
    "keywords": [
      "mercury",
      "crater",
      "phaethontias"
    ]
  },
  {
    "id": "mercury_solitudo_lycaonis",
    "name": "Solitudo Lycaonis",
    "body": "mercury",
    "category": "Crater",
    "lat": 0.0,
    "lon": -106.9999,
    "diameter_km": null,
    "origin": null,
    "keywords": [
      "mercury",
      "crater",
      "solitudo lycaonis"
    ]
  },
  {
    "id": "mercury_pourquoi-pas_rupes",
    "name": "Pourquoi-Pas Rupes",
    "body": "mercury",
    "category": "Rupes",
    "lat": -58.5407,
    "lon": -156.1723,
    "diameter_km": null,
    "origin": null,
    "keywords": [
      "mercury",
      "rupes",
      "pourquoi-pas rupes"
    ]
  },
  {
    "id": "mercury_resolution_rupes",
    "name": "Resolution Rupes",
    "body": "mercury",
    "category": "Rupes",
    "lat": -63.249,
    "lon": -50.663,
    "diameter_km": null,
    "origin": null,
    "keywords": [
      "mercury",
      "rupes",
      "resolution rupes"
    ]
  },
  {
    "id": "mercury_solitudo_alarum",
    "name": "Solitudo Alarum",
    "body": "mercury",
    "category": "Crater",
    "lat": -15.0,
    "lon": 70.0001,
    "diameter_km": null,
    "origin": null,
    "keywords": [
      "mercury",
      "crater",
      "solitudo alarum"
    ]
  },
  {
    "id": "mercury_solitudo_aphrodites",
    "name": "Solitudo Aphrodites",
    "body": "mercury",
    "category": "Crater",
    "lat": 25.0001,
    "lon": 70.0001,
    "diameter_km": null,
    "origin": null,
    "keywords": [
      "mercury",
      "crater",
      "solitudo aphrodites"
    ]
  },
  {
    "id": "mercury_solitudo_atlantis",
    "name": "Solitudo Atlantis",
    "body": "mercury",
    "category": "Crater",
    "lat": -35.0,
    "lon": 150.0001,
    "diameter_km": null,
    "origin": null,
    "keywords": [
      "mercury",
      "crater",
      "solitudo atlantis"
    ]
  },
  {
    "id": "mercury_solitudo_criophori",
    "name": "Solitudo Criophori",
    "body": "mercury",
    "category": "Crater",
    "lat": 0.0,
    "lon": 130.0001,
    "diameter_km": null,
    "origin": null,
    "keywords": [
      "mercury",
      "crater",
      "solitudo criophori"
    ]
  },
  {
    "id": "mercury_solitudo_helii",
    "name": "Solitudo Helii",
    "body": "mercury",
    "category": "Crater",
    "lat": -10.0,
    "lon": -179.9999,
    "diameter_km": null,
    "origin": null,
    "keywords": [
      "mercury",
      "crater",
      "solitudo helii"
    ]
  },
  {
    "id": "mercury_solitudo_hermae_trismegisti",
    "name": "Solitudo Hermae Trismegisti",
    "body": "mercury",
    "category": "Crater",
    "lat": -45.0,
    "lon": -44.9999,
    "diameter_km": null,
    "origin": null,
    "keywords": [
      "mercury",
      "crater",
      "solitudo hermae trismegisti"
    ]
  },
  {
    "id": "mercury_solitudo_horarum",
    "name": "Solitudo Horarum",
    "body": "mercury",
    "category": "Crater",
    "lat": 25.0001,
    "lon": -114.9999,
    "diameter_km": null,
    "origin": null,
    "keywords": [
      "mercury",
      "crater",
      "solitudo horarum"
    ]
  },
  {
    "id": "mercury_solitudo_maiae",
    "name": "Solitudo Maiae",
    "body": "mercury",
    "category": "Crater",
    "lat": -15.0,
    "lon": -154.9999,
    "diameter_km": null,
    "origin": null,
    "keywords": [
      "mercury",
      "crater",
      "solitudo maiae"
    ]
  },
  {
    "id": "mercury_solitudo_martis",
    "name": "Solitudo Martis",
    "body": "mercury",
    "category": "Crater",
    "lat": -35.0,
    "lon": -99.9999,
    "diameter_km": null,
    "origin": null,
    "keywords": [
      "mercury",
      "crater",
      "solitudo martis"
    ]
  },
  {
    "id": "mercury_victoria_rupes",
    "name": "Victoria Rupes",
    "body": "mercury",
    "category": "Rupes",
    "lat": 52.7087,
    "lon": -34.1609,
    "diameter_km": null,
    "origin": null,
    "keywords": [
      "mercury",
      "rupes",
      "victoria rupes"
    ]
  },
  {
    "id": "mercury_enterprise_rupes",
    "name": "Enterprise Rupes",
    "body": "mercury",
    "category": "Rupes",
    "lat": -36.5405,
    "lon": 76.5353,
    "diameter_km": null,
    "origin": null,
    "keywords": [
      "mercury",
      "rupes",
      "enterprise rupes"
    ]
  },
  {
    "id": "mercury_terror_rupes",
    "name": "Terror Rupes",
    "body": "mercury",
    "category": "Rupes",
    "lat": -72.056,
    "lon": 84.3106,
    "diameter_km": null,
    "origin": null,
    "keywords": [
      "mercury",
      "rupes",
      "terror rupes"
    ]
  },
  {
    "id": "mercury_arecibo_catena",
    "name": "Arecibo Catena",
    "body": "mercury",
    "category": "Catena",
    "lat": -27.577,
    "lon": -28.2946,
    "diameter_km": null,
    "origin": null,
    "keywords": [
      "mercury",
      "catena",
      "arecibo catena"
    ]
  },
  {
    "id": "mercury_beagle_rupes",
    "name": "Beagle Rupes",
    "body": "mercury",
    "category": "Rupes",
    "lat": -3.2243,
    "lon": 100.7572,
    "diameter_km": null,
    "origin": null,
    "keywords": [
      "mercury",
      "rupes",
      "beagle rupes"
    ]
  },
  {
    "id": "mercury_nautilus_rupes",
    "name": "Nautilus Rupes",
    "body": "mercury",
    "category": "Rupes",
    "lat": -28.2349,
    "lon": 66.6674,
    "diameter_km": null,
    "origin": null,
    "keywords": [
      "mercury",
      "rupes",
      "nautilus rupes"
    ]
  },
  {
    "id": "mercury_palmer_rupes",
    "name": "Palmer Rupes",
    "body": "mercury",
    "category": "Rupes",
    "lat": -26.0705,
    "lon": -106.2795,
    "diameter_km": null,
    "origin": null,
    "keywords": [
      "mercury",
      "rupes",
      "palmer rupes"
    ]
  },
  {
    "id": "mercury_vostok_rupes",
    "name": "Vostok Rupes",
    "body": "mercury",
    "category": "Rupes",
    "lat": -37.8771,
    "lon": -19.6002,
    "diameter_km": null,
    "origin": null,
    "keywords": [
      "mercury",
      "rupes",
      "vostok rupes"
    ]
  },
  {
    "id": "mercury_belgica_rupes",
    "name": "Belgica Rupes",
    "body": "mercury",
    "category": "Rupes",
    "lat": -50.4491,
    "lon": 63.7645,
    "diameter_km": null,
    "origin": null,
    "keywords": [
      "mercury",
      "rupes",
      "belgica rupes"
    ]
  },
  {
    "id": "mercury_alvin_rupes",
    "name": "Alvin Rupes",
    "body": "mercury",
    "category": "Rupes",
    "lat": 8.2951,
    "lon": 151.2813,
    "diameter_km": null,
    "origin": null,
    "keywords": [
      "mercury",
      "rupes",
      "alvin rupes"
    ]
  },
  {
    "id": "mercury_eltanin_rupes",
    "name": "Eltanin Rupes",
    "body": "mercury",
    "category": "Rupes",
    "lat": -74.9942,
    "lon": 90.5997,
    "diameter_km": null,
    "origin": null,
    "keywords": [
      "mercury",
      "rupes",
      "eltanin rupes"
    ]
  },
  {
    "id": "mercury_duyfken_rupes",
    "name": "Duyfken Rupes",
    "body": "mercury",
    "category": "Rupes",
    "lat": -20.8805,
    "lon": -131.9318,
    "diameter_km": null,
    "origin": null,
    "keywords": [
      "mercury",
      "rupes",
      "duyfken rupes"
    ]
  },
  {
    "id": "mercury_haystack_catena",
    "name": "Haystack Catena",
    "body": "mercury",
    "category": "Catena",
    "lat": 4.4213,
    "lon": -46.4763,
    "diameter_km": null,
    "origin": null,
    "keywords": [
      "mercury",
      "catena",
      "haystack catena"
    ]
  },
  {
    "id": "mercury_raphael",
    "name": "Raphael",
    "body": "mercury",
    "category": "Crater",
    "lat": -20.4168,
    "lon": -76.3511,
    "diameter_km": null,
    "origin": null,
    "keywords": [
      "mercury",
      "crater",
      "raphael"
    ]
  },
  {
    "id": "mercury_inyoka_faculae",
    "name": "Inyoka Faculae",
    "body": "mercury",
    "category": "Crater",
    "lat": 14.0,
    "lon": 162.3,
    "diameter_km": null,
    "origin": null,
    "keywords": [
      "mercury",
      "crater",
      "inyoka faculae"
    ]
  },
  {
    "id": "mercury_simonides",
    "name": "Simonides",
    "body": "mercury",
    "category": "Crater",
    "lat": -29.1268,
    "lon": -44.85,
    "diameter_km": null,
    "origin": null,
    "keywords": [
      "mercury",
      "crater",
      "simonides"
    ]
  },
  {
    "id": "mercury_sinan",
    "name": "Sinan",
    "body": "mercury",
    "category": "Crater",
    "lat": 15.4618,
    "lon": -30.5851,
    "diameter_km": null,
    "origin": null,
    "keywords": [
      "mercury",
      "crater",
      "sinan"
    ]
  },
  {
    "id": "mercury_berry",
    "name": "Berry",
    "body": "mercury",
    "category": "Crater",
    "lat": 70.57,
    "lon": 112.73,
    "diameter_km": null,
    "origin": null,
    "keywords": [
      "mercury",
      "crater",
      "berry"
    ]
  },
  {
    "id": "mercury_caloris_montes",
    "name": "Caloris Montes",
    "body": "mercury",
    "category": "Crater",
    "lat": 31.4641,
    "lon": -174.1527,
    "diameter_km": null,
    "origin": null,
    "keywords": [
      "mercury",
      "crater",
      "caloris montes"
    ]
  },
  {
    "id": "mercury_chaikovskij",
    "name": "Chaikovskij",
    "body": "mercury",
    "category": "Crater",
    "lat": 7.8598,
    "lon": -50.9271,
    "diameter_km": null,
    "origin": null,
    "keywords": [
      "mercury",
      "crater",
      "chaikovskij"
    ]
  },
  {
    "id": "mercury_fonteyn",
    "name": "Fonteyn",
    "body": "mercury",
    "category": "Crater",
    "lat": 32.8217,
    "lon": 95.5132,
    "diameter_km": null,
    "origin": null,
    "keywords": [
      "mercury",
      "crater",
      "fonteyn"
    ]
  },
  {
    "id": "mercury_copley",
    "name": "Copley",
    "body": "mercury",
    "category": "Crater",
    "lat": -38.6255,
    "lon": -86.0099,
    "diameter_km": null,
    "origin": null,
    "keywords": [
      "mercury",
      "crater",
      "copley"
    ]
  },
  {
    "id": "mercury_kuniyoshi",
    "name": "Kuniyoshi",
    "body": "mercury",
    "category": "Crater",
    "lat": -57.8719,
    "lon": -37.4854,
    "diameter_km": null,
    "origin": null,
    "keywords": [
      "mercury",
      "crater",
      "kuniyoshi"
    ]
  },
  {
    "id": "mercury_paramour_rupes",
    "name": "Paramour Rupes",
    "body": "mercury",
    "category": "Rupes",
    "lat": -0.0769,
    "lon": 147.4629,
    "diameter_km": null,
    "origin": null,
    "keywords": [
      "mercury",
      "rupes",
      "paramour rupes"
    ]
  },
  {
    "id": "mercury_magritte",
    "name": "Magritte",
    "body": "mercury",
    "category": "Crater",
    "lat": -72.7783,
    "lon": 121.6251,
    "diameter_km": null,
    "origin": null,
    "keywords": [
      "mercury",
      "crater",
      "magritte"
    ]
  },
  {
    "id": "mercury_munkácsy",
    "name": "Munkácsy",
    "body": "mercury",
    "category": "Crater",
    "lat": 21.9473,
    "lon": 101.1438,
    "diameter_km": null,
    "origin": null,
    "keywords": [
      "mercury",
      "crater",
      "munkácsy"
    ]
  },
  {
    "id": "mercury_hurley",
    "name": "Hurley",
    "body": "mercury",
    "category": "Crater",
    "lat": -87.3635,
    "lon": -6.99199999999996,
    "diameter_km": null,
    "origin": null,
    "keywords": [
      "mercury",
      "crater",
      "hurley"
    ]
  },
  {
    "id": "mercury_dostoevskij",
    "name": "Dostoevskij",
    "body": "mercury",
    "category": "Crater",
    "lat": -44.7274,
    "lon": -178.1136,
    "diameter_km": null,
    "origin": null,
    "keywords": [
      "mercury",
      "crater",
      "dostoevskij"
    ]
  },
  {
    "id": "mercury_kunisada",
    "name": "Kunisada",
    "body": "mercury",
    "category": "Crater",
    "lat": 1.3695,
    "lon": 113.0217,
    "diameter_km": null,
    "origin": null,
    "keywords": [
      "mercury",
      "crater",
      "kunisada"
    ]
  },
  {
    "id": "mercury_dürer",
    "name": "Dürer",
    "body": "mercury",
    "category": "Crater",
    "lat": 21.5118,
    "lon": -118.9828,
    "diameter_km": null,
    "origin": null,
    "keywords": [
      "mercury",
      "crater",
      "dürer"
    ]
  },
  {
    "id": "mercury_lange",
    "name": "Lange",
    "body": "mercury",
    "category": "Crater",
    "lat": 6.2778,
    "lon": 100.4671,
    "diameter_km": null,
    "origin": null,
    "keywords": [
      "mercury",
      "crater",
      "lange"
    ]
  },
  {
    "id": "mercury_van_dijck",
    "name": "Van Dijck",
    "body": "mercury",
    "category": "Crater",
    "lat": 75.7978,
    "lon": -166.6316,
    "diameter_km": null,
    "origin": null,
    "keywords": [
      "mercury",
      "crater",
      "van dijck"
    ]
  },
  {
    "id": "mercury_sanai",
    "name": "Sanai",
    "body": "mercury",
    "category": "Crater",
    "lat": -13.3738,
    "lon": -6.98599999999999,
    "diameter_km": null,
    "origin": null,
    "keywords": [
      "mercury",
      "crater",
      "sanai"
    ]
  },
  {
    "id": "mercury_larrocha",
    "name": "Larrocha",
    "body": "mercury",
    "category": "Crater",
    "lat": 43.294,
    "lon": -69.8331,
    "diameter_km": null,
    "origin": null,
    "keywords": [
      "mercury",
      "crater",
      "larrocha"
    ]
  },
  {
    "id": "mercury_matabei",
    "name": "Matabei",
    "body": "mercury",
    "category": "Crater",
    "lat": -39.8707,
    "lon": -13.8978,
    "diameter_km": null,
    "origin": null,
    "keywords": [
      "mercury",
      "crater",
      "matabei"
    ]
  },
  {
    "id": "mercury_nzoka_facula",
    "name": "Nzoka Facula",
    "body": "mercury",
    "category": "Crater",
    "lat": 15.4,
    "lon": 165.3,
    "diameter_km": null,
    "origin": null,
    "keywords": [
      "mercury",
      "crater",
      "nzoka facula"
    ]
  },
  {
    "id": "mercury_ibab_facula",
    "name": "Ibab Facula",
    "body": "mercury",
    "category": "Crater",
    "lat": 14.5,
    "lon": 160.8,
    "diameter_km": null,
    "origin": null,
    "keywords": [
      "mercury",
      "crater",
      "ibab facula"
    ]
  },
  {
    "id": "mercury_ejo_faculae",
    "name": "Ejo Faculae",
    "body": "mercury",
    "category": "Crater",
    "lat": 14.5,
    "lon": 159.5,
    "diameter_km": null,
    "origin": null,
    "keywords": [
      "mercury",
      "crater",
      "ejo faculae"
    ]
  },
  {
    "id": "mercury_stilbon_planitia",
    "name": "Stilbon Planitia",
    "body": "mercury",
    "category": "Planitia",
    "lat": 57.54,
    "lon": 150.39,
    "diameter_km": null,
    "origin": null,
    "keywords": [
      "mercury",
      "planitia",
      "stilbon planitia"
    ]
  },
  {
    "id": "mercury_beethoven",
    "name": "Beethoven",
    "body": "mercury",
    "category": "Crater",
    "lat": -20.8625,
    "lon": -124.2103,
    "diameter_km": null,
    "origin": null,
    "keywords": [
      "mercury",
      "crater",
      "beethoven"
    ]
  },
  {
    "id": "mercury_turms_planitia",
    "name": "Turms Planitia",
    "body": "mercury",
    "category": "Planitia",
    "lat": -31.05,
    "lon": 9.19,
    "diameter_km": null,
    "origin": null,
    "keywords": [
      "mercury",
      "planitia",
      "turms planitia"
    ]
  },
  {
    "id": "mercury_otaared_planitia",
    "name": "Otaared Planitia",
    "body": "mercury",
    "category": "Planitia",
    "lat": 18.26,
    "lon": 22.39,
    "diameter_km": null,
    "origin": null,
    "keywords": [
      "mercury",
      "planitia",
      "otaared planitia"
    ]
  },
  {
    "id": "mercury_bernini",
    "name": "Bernini",
    "body": "mercury",
    "category": "Crater",
    "lat": -80.3188,
    "lon": -140.97,
    "diameter_km": null,
    "origin": null,
    "keywords": [
      "mercury",
      "crater",
      "bernini"
    ]
  },
  {
    "id": "mercury_boccaccio",
    "name": "Boccaccio",
    "body": "mercury",
    "category": "Crater",
    "lat": -80.9899,
    "lon": -23.0069,
    "diameter_km": null,
    "origin": null,
    "keywords": [
      "mercury",
      "crater",
      "boccaccio"
    ]
  },
  {
    "id": "mercury_apārangi_planitia",
    "name": "Apārangi Planitia",
    "body": "mercury",
    "category": "Planitia",
    "lat": 6.7,
    "lon": 70.62,
    "diameter_km": null,
    "origin": null,
    "keywords": [
      "mercury",
      "planitia",
      "apārangi planitia"
    ]
  },
  {
    "id": "mercury_papsukkal_planitia",
    "name": "Papsukkal Planitia",
    "body": "mercury",
    "category": "Planitia",
    "lat": -16.25,
    "lon": 88.37,
    "diameter_km": null,
    "origin": null,
    "keywords": [
      "mercury",
      "planitia",
      "papsukkal planitia"
    ]
  },
  {
    "id": "mercury_ailey",
    "name": "Ailey",
    "body": "mercury",
    "category": "Crater",
    "lat": 45.5848,
    "lon": 177.9231,
    "diameter_km": null,
    "origin": null,
    "keywords": [
      "mercury",
      "crater",
      "ailey"
    ]
  },
  {
    "id": "mercury_aksakov",
    "name": "Aksakov",
    "body": "mercury",
    "category": "Crater",
    "lat": 34.7128,
    "lon": -78.7446,
    "diameter_km": null,
    "origin": null,
    "keywords": [
      "mercury",
      "crater",
      "aksakov"
    ]
  },
  {
    "id": "mercury_al-jāhiz",
    "name": "Al-Jāhiz",
    "body": "mercury",
    "category": "Crater",
    "lat": 1.3624,
    "lon": -21.7645,
    "diameter_km": null,
    "origin": null,
    "keywords": [
      "mercury",
      "crater",
      "al-jāhiz"
    ]
  },
  {
    "id": "mercury_sihtu_planitia",
    "name": "Sihtu Planitia",
    "body": "mercury",
    "category": "Planitia",
    "lat": -2.82,
    "lon": -55.57,
    "diameter_km": null,
    "origin": null,
    "keywords": [
      "mercury",
      "planitia",
      "sihtu planitia"
    ]
  },
  {
    "id": "mercury_catuilla_planum",
    "name": "Catuilla Planum",
    "body": "mercury",
    "category": "Crater",
    "lat": -8.78,
    "lon": 114.22,
    "diameter_km": null,
    "origin": null,
    "keywords": [
      "mercury",
      "crater",
      "catuilla planum"
    ]
  },
  {
    "id": "mercury_mearcair_planitia",
    "name": "Mearcair Planitia",
    "body": "mercury",
    "category": "Planitia",
    "lat": 31.4,
    "lon": 132.1,
    "diameter_km": null,
    "origin": null,
    "keywords": [
      "mercury",
      "planitia",
      "mearcair planitia"
    ]
  },
  {
    "id": "mercury_lugus_planitia",
    "name": "Lugus Planitia",
    "body": "mercury",
    "category": "Planitia",
    "lat": -6.24,
    "lon": -98.66,
    "diameter_km": null,
    "origin": null,
    "keywords": [
      "mercury",
      "planitia",
      "lugus planitia"
    ]
  },
  {
    "id": "mercury_utaridi_planitia",
    "name": "Utaridi Planitia",
    "body": "mercury",
    "category": "Planitia",
    "lat": -65.5,
    "lon": 89.83,
    "diameter_km": null,
    "origin": null,
    "keywords": [
      "mercury",
      "planitia",
      "utaridi planitia"
    ]
  },
  {
    "id": "mercury_amru_al-qays",
    "name": "Amru Al-Qays",
    "body": "mercury",
    "category": "Crater",
    "lat": 12.4276,
    "lon": -176.1146,
    "diameter_km": null,
    "origin": null,
    "keywords": [
      "mercury",
      "crater",
      "amru al-qays"
    ]
  },
  {
    "id": "mercury_agwo_facula",
    "name": "Agwo Facula",
    "body": "mercury",
    "category": "Crater",
    "lat": 22.4,
    "lon": 146.3,
    "diameter_km": null,
    "origin": null,
    "keywords": [
      "mercury",
      "crater",
      "agwo facula"
    ]
  },
  {
    "id": "mercury_haydn",
    "name": "Haydn",
    "body": "mercury",
    "category": "Crater",
    "lat": -27.2248,
    "lon": -71.6379,
    "diameter_km": null,
    "origin": null,
    "keywords": [
      "mercury",
      "crater",
      "haydn"
    ]
  },
  {
    "id": "mercury_odin_planitia",
    "name": "Odin Planitia",
    "body": "mercury",
    "category": "Planitia",
    "lat": 23.5981,
    "lon": -169.8628,
    "diameter_km": null,
    "origin": null,
    "keywords": [
      "mercury",
      "planitia",
      "odin planitia"
    ]
  },
  {
    "id": "mercury_rembrandt",
    "name": "Rembrandt",
    "body": "mercury",
    "category": "Crater",
    "lat": -32.8916,
    "lon": 87.8657,
    "diameter_km": null,
    "origin": null,
    "keywords": [
      "mercury",
      "crater",
      "rembrandt"
    ]
  },
  {
    "id": "mercury_nathair_facula",
    "name": "Nathair Facula",
    "body": "mercury",
    "category": "Crater",
    "lat": 36.0,
    "lon": 64.5,
    "diameter_km": null,
    "origin": null,
    "keywords": [
      "mercury",
      "crater",
      "nathair facula"
    ]
  },
  {
    "id": "mercury_suge_facula",
    "name": "Suge Facula",
    "body": "mercury",
    "category": "Crater",
    "lat": 26.1,
    "lon": 59.6,
    "diameter_km": null,
    "origin": null,
    "keywords": [
      "mercury",
      "crater",
      "suge facula"
    ]
  },
  {
    "id": "mercury_apollodorus",
    "name": "Apollodorus",
    "body": "mercury",
    "category": "Crater",
    "lat": 30.5376,
    "lon": 163.2836,
    "diameter_km": null,
    "origin": null,
    "keywords": [
      "mercury",
      "crater",
      "apollodorus"
    ]
  },
  {
    "id": "mercury_barma",
    "name": "Barma",
    "body": "mercury",
    "category": "Crater",
    "lat": -40.9317,
    "lon": -163.493,
    "diameter_km": null,
    "origin": null,
    "keywords": [
      "mercury",
      "crater",
      "barma"
    ]
  },
  {
    "id": "mercury_barney",
    "name": "Barney",
    "body": "mercury",
    "category": "Crater",
    "lat": -11.6895,
    "lon": 59.7101,
    "diameter_km": null,
    "origin": null,
    "keywords": [
      "mercury",
      "crater",
      "barney"
    ]
  },
  {
    "id": "mercury_neidr_facula",
    "name": "Neidr Facula",
    "body": "mercury",
    "category": "Crater",
    "lat": 35.9,
    "lon": 57.3,
    "diameter_km": null,
    "origin": null,
    "keywords": [
      "mercury",
      "crater",
      "neidr facula"
    ]
  },
  {
    "id": "mercury_borealis_planitia",
    "name": "Borealis Planitia",
    "body": "mercury",
    "category": "Planitia",
    "lat": 67.3,
    "lon": 32.6,
    "diameter_km": null,
    "origin": null,
    "keywords": [
      "mercury",
      "planitia",
      "borealis planitia"
    ]
  },
  {
    "id": "mercury_goethe",
    "name": "Goethe",
    "body": "mercury",
    "category": "Crater",
    "lat": 81.1022,
    "lon": -51.034,
    "diameter_km": null,
    "origin": null,
    "keywords": [
      "mercury",
      "crater",
      "goethe"
    ]
  },
  {
    "id": "mercury_thueban_facula",
    "name": "Thueban Facula",
    "body": "mercury",
    "category": "Crater",
    "lat": 48.7,
    "lon": 159.5,
    "diameter_km": null,
    "origin": null,
    "keywords": [
      "mercury",
      "crater",
      "thueban facula"
    ]
  },
  {
    "id": "mercury_abeeso_facula",
    "name": "Abeeso Facula",
    "body": "mercury",
    "category": "Crater",
    "lat": 21.7,
    "lon": 145.4,
    "diameter_km": null,
    "origin": null,
    "keywords": [
      "mercury",
      "crater",
      "abeeso facula"
    ]
  },
  {
    "id": "mercury_slang_faculae",
    "name": "Slang Faculae",
    "body": "mercury",
    "category": "Crater",
    "lat": 24.5,
    "lon": -179.3,
    "diameter_km": null,
    "origin": null,
    "keywords": [
      "mercury",
      "crater",
      "slang faculae"
    ]
  },
  {
    "id": "mercury_heaney",
    "name": "Heaney",
    "body": "mercury",
    "category": "Crater",
    "lat": -33.77,
    "lon": 122.29,
    "diameter_km": null,
    "origin": null,
    "keywords": [
      "mercury",
      "crater",
      "heaney"
    ]
  },
  {
    "id": "mercury_enheduanna",
    "name": "Enheduanna",
    "body": "mercury",
    "category": "Crater",
    "lat": 48.3398,
    "lon": -33.5918,
    "diameter_km": null,
    "origin": null,
    "keywords": [
      "mercury",
      "crater",
      "enheduanna"
    ]
  },
  {
    "id": "mercury_rivera",
    "name": "Rivera",
    "body": "mercury",
    "category": "Crater",
    "lat": 69.2898,
    "lon": 32.1802,
    "diameter_km": null,
    "origin": null,
    "keywords": [
      "mercury",
      "crater",
      "rivera"
    ]
  },
  {
    "id": "mercury_carolan",
    "name": "Carolan",
    "body": "mercury",
    "category": "Crater",
    "lat": 83.8765,
    "lon": 31.766,
    "diameter_km": null,
    "origin": null,
    "keywords": [
      "mercury",
      "crater",
      "carolan"
    ]
  },
  {
    "id": "mercury_bibilava_faculae",
    "name": "Bibilava Faculae",
    "body": "mercury",
    "category": "Crater",
    "lat": 16.4,
    "lon": 157.2,
    "diameter_km": null,
    "origin": null,
    "keywords": [
      "mercury",
      "crater",
      "bibilava faculae"
    ]
  },
  {
    "id": "mercury_karsh",
    "name": "Karsh",
    "body": "mercury",
    "category": "Crater",
    "lat": -35.4858,
    "lon": 78.8538,
    "diameter_km": null,
    "origin": null,
    "keywords": [
      "mercury",
      "crater",
      "karsh"
    ]
  },
  {
    "id": "mercury_kulthum",
    "name": "Kulthum",
    "body": "mercury",
    "category": "Crater",
    "lat": 50.7211,
    "lon": 93.5316,
    "diameter_km": null,
    "origin": null,
    "keywords": [
      "mercury",
      "crater",
      "kulthum"
    ]
  },
  {
    "id": "mercury_maciji_facula",
    "name": "Maciji Facula",
    "body": "mercury",
    "category": "Crater",
    "lat": 14.9,
    "lon": 164.0,
    "diameter_km": null,
    "origin": null,
    "keywords": [
      "mercury",
      "crater",
      "maciji facula"
    ]
  },
  {
    "id": "mercury_akutagawa",
    "name": "Akutagawa",
    "body": "mercury",
    "category": "Crater",
    "lat": 48.252,
    "lon": -141.0908,
    "diameter_km": null,
    "origin": null,
    "keywords": [
      "mercury",
      "crater",
      "akutagawa"
    ]
  },
  {
    "id": "mercury_driscoll",
    "name": "Driscoll",
    "body": "mercury",
    "category": "Crater",
    "lat": 30.5832,
    "lon": -33.5841,
    "diameter_km": null,
    "origin": null,
    "keywords": [
      "mercury",
      "crater",
      "driscoll"
    ]
  },
  {
    "id": "mercury_bagryana",
    "name": "Bagryana",
    "body": "mercury",
    "category": "Crater",
    "lat": -3.8892,
    "lon": 76.266,
    "diameter_km": null,
    "origin": null,
    "keywords": [
      "mercury",
      "crater",
      "bagryana"
    ]
  },
  {
    "id": "mercury_castiglione",
    "name": "Castiglione",
    "body": "mercury",
    "category": "Crater",
    "lat": -40.8746,
    "lon": 87.9554,
    "diameter_km": null,
    "origin": null,
    "keywords": [
      "mercury",
      "crater",
      "castiglione"
    ]
  },
  {
    "id": "mercury_namatjira",
    "name": "Namatjira",
    "body": "mercury",
    "category": "Crater",
    "lat": 58.8181,
    "lon": -33.0375,
    "diameter_km": null,
    "origin": null,
    "keywords": [
      "mercury",
      "crater",
      "namatjira"
    ]
  },
  {
    "id": "mercury_plath",
    "name": "Plath",
    "body": "mercury",
    "category": "Crater",
    "lat": 37.8589,
    "lon": -38.8405,
    "diameter_km": null,
    "origin": null,
    "keywords": [
      "mercury",
      "crater",
      "plath"
    ]
  },
  {
    "id": "mercury_jobim",
    "name": "Jobim",
    "body": "mercury",
    "category": "Crater",
    "lat": 32.4536,
    "lon": -66.8782,
    "diameter_km": null,
    "origin": null,
    "keywords": [
      "mercury",
      "crater",
      "jobim"
    ]
  },
  {
    "id": "mercury_baranauskas",
    "name": "Baranauskas",
    "body": "mercury",
    "category": "Crater",
    "lat": 50.7266,
    "lon": -39.7579,
    "diameter_km": null,
    "origin": null,
    "keywords": [
      "mercury",
      "crater",
      "baranauskas"
    ]
  },
  {
    "id": "mercury_villa-lobos",
    "name": "Villa-Lobos",
    "body": "mercury",
    "category": "Crater",
    "lat": 5.2707,
    "lon": 6.7934,
    "diameter_km": null,
    "origin": null,
    "keywords": [
      "mercury",
      "crater",
      "villa-lobos"
    ]
  },
  {
    "id": "mercury_boznańska",
    "name": "Boznańska",
    "body": "mercury",
    "category": "Crater",
    "lat": 59.6448,
    "lon": -40.7549,
    "diameter_km": null,
    "origin": null,
    "keywords": [
      "mercury",
      "crater",
      "boznańska"
    ]
  },
  {
    "id": "mercury_brooks",
    "name": "Brooks",
    "body": "mercury",
    "category": "Crater",
    "lat": -45.217,
    "lon": -168.015,
    "diameter_km": null,
    "origin": null,
    "keywords": [
      "mercury",
      "crater",
      "brooks"
    ]
  },
  {
    "id": "mercury_du_fu",
    "name": "Du Fu",
    "body": "mercury",
    "category": "Crater",
    "lat": 25.0021,
    "lon": -93.6573,
    "diameter_km": null,
    "origin": null,
    "keywords": [
      "mercury",
      "crater",
      "du fu"
    ]
  },
  {
    "id": "mercury_gata_facula",
    "name": "Gata Facula",
    "body": "mercury",
    "category": "Crater",
    "lat": -52.9,
    "lon": 38.6,
    "diameter_km": null,
    "origin": null,
    "keywords": [
      "mercury",
      "crater",
      "gata facula"
    ]
  },
  {
    "id": "mercury_chiang_k'ui",
    "name": "Chiang K'ui",
    "body": "mercury",
    "category": "Crater",
    "lat": 14.7071,
    "lon": -102.8012,
    "diameter_km": null,
    "origin": null,
    "keywords": [
      "mercury",
      "crater",
      "chiang k'ui"
    ]
  },
  {
    "id": "mercury_kerouac",
    "name": "Kerouac",
    "body": "mercury",
    "category": "Crater",
    "lat": 25.2136,
    "lon": 129.1047,
    "diameter_km": null,
    "origin": null,
    "keywords": [
      "mercury",
      "crater",
      "kerouac"
    ]
  },
  {
    "id": "mercury_nākahi_facula",
    "name": "Nākahi Facula",
    "body": "mercury",
    "category": "Crater",
    "lat": -52.7,
    "lon": 17.8,
    "diameter_km": null,
    "origin": null,
    "keywords": [
      "mercury",
      "crater",
      "nākahi facula"
    ]
  },
  {
    "id": "mercury_amaru_facula",
    "name": "Amaru Facula",
    "body": "mercury",
    "category": "Crater",
    "lat": -49.8,
    "lon": 10.5,
    "diameter_km": null,
    "origin": null,
    "keywords": [
      "mercury",
      "crater",
      "amaru facula"
    ]
  },
  {
    "id": "mercury_kālidāsā",
    "name": "Kālidāsā",
    "body": "mercury",
    "category": "Crater",
    "lat": -18.2097,
    "lon": -179.8171,
    "diameter_km": null,
    "origin": null,
    "keywords": [
      "mercury",
      "crater",
      "kālidāsā"
    ]
  },
  {
    "id": "mercury_burke",
    "name": "Burke",
    "body": "mercury",
    "category": "Crater",
    "lat": 85.9085,
    "lon": -171.5596,
    "diameter_km": null,
    "origin": null,
    "keywords": [
      "mercury",
      "crater",
      "burke"
    ]
  },
  {
    "id": "mercury_rubens",
    "name": "Rubens",
    "body": "mercury",
    "category": "Crater",
    "lat": 60.5775,
    "lon": -77.9895,
    "diameter_km": null,
    "origin": null,
    "keywords": [
      "mercury",
      "crater",
      "rubens"
    ]
  },
  {
    "id": "mercury_yamada",
    "name": "Yamada",
    "body": "mercury",
    "category": "Crater",
    "lat": 82.5404,
    "lon": 136.1633,
    "diameter_km": null,
    "origin": null,
    "keywords": [
      "mercury",
      "crater",
      "yamada"
    ]
  },
  {
    "id": "mercury_sapkota",
    "name": "Sapkota",
    "body": "mercury",
    "category": "Crater",
    "lat": 86.0879,
    "lon": -132.7894,
    "diameter_km": null,
    "origin": null,
    "keywords": [
      "mercury",
      "crater",
      "sapkota"
    ]
  },
  {
    "id": "mercury_anguissola",
    "name": "Anguissola",
    "body": "mercury",
    "category": "Crater",
    "lat": 80.69,
    "lon": 142.65,
    "diameter_km": null,
    "origin": null,
    "keywords": [
      "mercury",
      "crater",
      "anguissola"
    ]
  },
  {
    "id": "mercury_anyte",
    "name": "Anyte",
    "body": "mercury",
    "category": "Crater",
    "lat": 79.5,
    "lon": 149.33,
    "diameter_km": null,
    "origin": null,
    "keywords": [
      "mercury",
      "crater",
      "anyte"
    ]
  },
  {
    "id": "mercury_vonnegut",
    "name": "Vonnegut",
    "body": "mercury",
    "category": "Crater",
    "lat": 82.72,
    "lon": 110.09,
    "diameter_km": null,
    "origin": null,
    "keywords": [
      "mercury",
      "crater",
      "vonnegut"
    ]
  },
  {
    "id": "mercury_monet",
    "name": "Monet",
    "body": "mercury",
    "category": "Crater",
    "lat": 44.2298,
    "lon": -9.76749999999998,
    "diameter_km": null,
    "origin": null,
    "keywords": [
      "mercury",
      "crater",
      "monet"
    ]
  },
  {
    "id": "mercury_matisse",
    "name": "Matisse",
    "body": "mercury",
    "category": "Crater",
    "lat": -23.8317,
    "lon": -90.0502,
    "diameter_km": null,
    "origin": null,
    "keywords": [
      "mercury",
      "crater",
      "matisse"
    ]
  },
  {
    "id": "mercury_michelangelo",
    "name": "Michelangelo",
    "body": "mercury",
    "category": "Crater",
    "lat": -44.9182,
    "lon": -109.7832,
    "diameter_km": null,
    "origin": null,
    "keywords": [
      "mercury",
      "crater",
      "michelangelo"
    ]
  },
  {
    "id": "mercury_travers",
    "name": "Travers",
    "body": "mercury",
    "category": "Crater",
    "lat": -28.0,
    "lon": 30.9,
    "diameter_km": null,
    "origin": null,
    "keywords": [
      "mercury",
      "crater",
      "travers"
    ]
  },
  {
    "id": "mercury_milton",
    "name": "Milton",
    "body": "mercury",
    "category": "Crater",
    "lat": -26.0983,
    "lon": -175.0282,
    "diameter_km": null,
    "origin": null,
    "keywords": [
      "mercury",
      "crater",
      "milton"
    ]
  },
  {
    "id": "mercury_carleton",
    "name": "Carleton",
    "body": "mercury",
    "category": "Crater",
    "lat": -52.2,
    "lon": 56.6,
    "diameter_km": null,
    "origin": null,
    "keywords": [
      "mercury",
      "crater",
      "carleton"
    ]
  },
  {
    "id": "mercury_pushkin",
    "name": "Pushkin",
    "body": "mercury",
    "category": "Crater",
    "lat": -65.7855,
    "lon": -20.7298,
    "diameter_km": null,
    "origin": null,
    "keywords": [
      "mercury",
      "crater",
      "pushkin"
    ]
  },
  {
    "id": "mercury_rabelais",
    "name": "Rabelais",
    "body": "mercury",
    "category": "Crater",
    "lat": -60.5281,
    "lon": -61.8099,
    "diameter_km": null,
    "origin": null,
    "keywords": [
      "mercury",
      "crater",
      "rabelais"
    ]
  },
  {
    "id": "mercury_kainan_rupēs",
    "name": "Kainan Rupēs",
    "body": "mercury",
    "category": "Crater",
    "lat": -29.8,
    "lon": 29.2,
    "diameter_km": null,
    "origin": null,
    "keywords": [
      "mercury",
      "crater",
      "kainan rupēs"
    ]
  },
  {
    "id": "mercury_meteor_rupēs",
    "name": "Meteor Rupēs",
    "body": "mercury",
    "category": "Crater",
    "lat": -47.7,
    "lon": 14.3,
    "diameter_km": null,
    "origin": null,
    "keywords": [
      "mercury",
      "crater",
      "meteor rupēs"
    ]
  },
  {
    "id": "mercury_strauss",
    "name": "Strauss",
    "body": "mercury",
    "category": "Crater",
    "lat": 70.42,
    "lon": 74.47,
    "diameter_km": null,
    "origin": null,
    "keywords": [
      "mercury",
      "crater",
      "strauss"
    ]
  },
  {
    "id": "mercury_canova",
    "name": "Canova",
    "body": "mercury",
    "category": "Crater",
    "lat": 25.6,
    "lon": -3.70999999999998,
    "diameter_km": null,
    "origin": null,
    "keywords": [
      "mercury",
      "crater",
      "canova"
    ]
  },
  {
    "id": "mercury_renoir",
    "name": "Renoir",
    "body": "mercury",
    "category": "Crater",
    "lat": -18.3411,
    "lon": -52.0149,
    "diameter_km": null,
    "origin": null,
    "keywords": [
      "mercury",
      "crater",
      "renoir"
    ]
  },
  {
    "id": "mercury_holst",
    "name": "Holst",
    "body": "mercury",
    "category": "Crater",
    "lat": -17.422,
    "lon": 44.9575,
    "diameter_km": null,
    "origin": null,
    "keywords": [
      "mercury",
      "crater",
      "holst"
    ]
  },
  {
    "id": "mercury_orm_faculae",
    "name": "Orm Faculae",
    "body": "mercury",
    "category": "Crater",
    "lat": 26.58,
    "lon": -59.68,
    "diameter_km": null,
    "origin": null,
    "keywords": [
      "mercury",
      "crater",
      "orm faculae"
    ]
  },
  {
    "id": "mercury_scopas",
    "name": "Scopas",
    "body": "mercury",
    "category": "Crater",
    "lat": -81.2608,
    "lon": 174.7095,
    "diameter_km": null,
    "origin": null,
    "keywords": [
      "mercury",
      "crater",
      "scopas"
    ]
  },
  {
    "id": "mercury_schubert",
    "name": "Schubert",
    "body": "mercury",
    "category": "Crater",
    "lat": -43.2146,
    "lon": -54.2565,
    "diameter_km": null,
    "origin": null,
    "keywords": [
      "mercury",
      "crater",
      "schubert"
    ]
  },
  {
    "id": "mercury_pampu_facula",
    "name": "Pampu Facula",
    "body": "mercury",
    "category": "Crater",
    "lat": -57.76,
    "lon": -31.79,
    "diameter_km": null,
    "origin": null,
    "keywords": [
      "mercury",
      "crater",
      "pampu facula"
    ]
  },
  {
    "id": "mercury_sarpa_facula",
    "name": "Sarpa Facula",
    "body": "mercury",
    "category": "Crater",
    "lat": -53.07,
    "lon": -30.87,
    "diameter_km": null,
    "origin": null,
    "keywords": [
      "mercury",
      "crater",
      "sarpa facula"
    ]
  },
  {
    "id": "mercury_ular_facula",
    "name": "Ular Facula",
    "body": "mercury",
    "category": "Crater",
    "lat": -55.1,
    "lon": -29.95,
    "diameter_km": null,
    "origin": null,
    "keywords": [
      "mercury",
      "crater",
      "ular facula"
    ]
  },
  {
    "id": "mercury_suisei_planitia",
    "name": "Suisei Planitia",
    "body": "mercury",
    "category": "Planitia",
    "lat": 60.8823,
    "lon": -147.8139,
    "diameter_km": null,
    "origin": null,
    "keywords": [
      "mercury",
      "planitia",
      "suisei planitia"
    ]
  },
  {
    "id": "mercury_sholem_aleichem",
    "name": "Sholem Aleichem",
    "body": "mercury",
    "category": "Crater",
    "lat": 50.9248,
    "lon": -90.4805,
    "diameter_km": null,
    "origin": null,
    "keywords": [
      "mercury",
      "crater",
      "sholem aleichem"
    ]
  },
  {
    "id": "mercury_havu_facula",
    "name": "Havu Facula",
    "body": "mercury",
    "category": "Crater",
    "lat": -52.22,
    "lon": -28.45,
    "diameter_km": null,
    "origin": null,
    "keywords": [
      "mercury",
      "crater",
      "havu facula"
    ]
  },
  {
    "id": "mercury_bitin_facula",
    "name": "Bitin Facula",
    "body": "mercury",
    "category": "Crater",
    "lat": -51.55,
    "lon": -28.45,
    "diameter_km": null,
    "origin": null,
    "keywords": [
      "mercury",
      "crater",
      "bitin facula"
    ]
  },
  {
    "id": "mercury_popova",
    "name": "Popova",
    "body": "mercury",
    "category": "Crater",
    "lat": -34.7211,
    "lon": -66.7304,
    "diameter_km": null,
    "origin": null,
    "keywords": [
      "mercury",
      "crater",
      "popova"
    ]
  },
  {
    "id": "mercury_smetana",
    "name": "Smetana",
    "body": "mercury",
    "category": "Crater",
    "lat": -48.2467,
    "lon": -70.1707,
    "diameter_km": null,
    "origin": null,
    "keywords": [
      "mercury",
      "crater",
      "smetana"
    ]
  },
  {
    "id": "mercury_vālmiki",
    "name": "Vālmiki",
    "body": "mercury",
    "category": "Crater",
    "lat": -23.583,
    "lon": -141.4107,
    "diameter_km": null,
    "origin": null,
    "keywords": [
      "mercury",
      "crater",
      "vālmiki"
    ]
  },
  {
    "id": "mercury_martins",
    "name": "Martins",
    "body": "mercury",
    "category": "Crater",
    "lat": -7.9999,
    "lon": 55.0694,
    "diameter_km": null,
    "origin": null,
    "keywords": [
      "mercury",
      "crater",
      "martins"
    ]
  },
  {
    "id": "mercury_caloris_planitia",
    "name": "Caloris Planitia",
    "body": "mercury",
    "category": "Planitia",
    "lat": 31.6525,
    "lon": 161.9848,
    "diameter_km": null,
    "origin": null,
    "keywords": [
      "mercury",
      "planitia",
      "caloris planitia"
    ]
  },
  {
    "id": "mercury_vivaldi",
    "name": "Vivaldi",
    "body": "mercury",
    "category": "Crater",
    "lat": 13.7593,
    "lon": -85.9153,
    "diameter_km": null,
    "origin": null,
    "keywords": [
      "mercury",
      "crater",
      "vivaldi"
    ]
  },
  {
    "id": "mercury_grifo_rupes",
    "name": "Grifo Rupes",
    "body": "mercury",
    "category": "Rupes",
    "lat": 7.9,
    "lon": 5.38,
    "diameter_km": null,
    "origin": null,
    "keywords": [
      "mercury",
      "rupes",
      "grifo rupes"
    ]
  },
  {
    "id": "mercury_soya_rupes",
    "name": "Soya Rupes",
    "body": "mercury",
    "category": "Rupes",
    "lat": -6.47,
    "lon": 66.63,
    "diameter_km": null,
    "origin": null,
    "keywords": [
      "mercury",
      "rupes",
      "soya rupes"
    ]
  },
  {
    "id": "mercury_copland",
    "name": "Copland",
    "body": "mercury",
    "category": "Crater",
    "lat": 37.6288,
    "lon": 72.9857,
    "diameter_km": null,
    "origin": null,
    "keywords": [
      "mercury",
      "crater",
      "copland"
    ]
  },
  {
    "id": "mercury_unity_rupes",
    "name": "Unity Rupes",
    "body": "mercury",
    "category": "Rupes",
    "lat": 27.1603,
    "lon": 84.8011,
    "diameter_km": null,
    "origin": null,
    "keywords": [
      "mercury",
      "rupes",
      "unity rupes"
    ]
  },
  {
    "id": "mercury_rachmaninoff",
    "name": "Rachmaninoff",
    "body": "mercury",
    "category": "Crater",
    "lat": 27.6609,
    "lon": 57.3702,
    "diameter_km": null,
    "origin": null,
    "keywords": [
      "mercury",
      "crater",
      "rachmaninoff"
    ]
  },
  {
    "id": "mercury_kofi",
    "name": "Kofi",
    "body": "mercury",
    "category": "Crater",
    "lat": 56.7518,
    "lon": 117.8746,
    "diameter_km": null,
    "origin": null,
    "keywords": [
      "mercury",
      "crater",
      "kofi"
    ]
  },
  {
    "id": "mercury_angelou",
    "name": "Angelou",
    "body": "mercury",
    "category": "Crater",
    "lat": 80.32,
    "lon": -66.71,
    "diameter_km": null,
    "origin": null,
    "keywords": [
      "mercury",
      "crater",
      "angelou"
    ]
  },
  {
    "id": "mercury_rizal",
    "name": "Rizal",
    "body": "mercury",
    "category": "Crater",
    "lat": 82.48,
    "lon": -146.98,
    "diameter_km": null,
    "origin": null,
    "keywords": [
      "mercury",
      "crater",
      "rizal"
    ]
  },
  {
    "id": "mercury_kirby",
    "name": "Kirby",
    "body": "mercury",
    "category": "Crater",
    "lat": 82.96,
    "lon": -151.32,
    "diameter_km": null,
    "origin": null,
    "keywords": [
      "mercury",
      "crater",
      "kirby"
    ]
  },
  {
    "id": "mercury_josetsu",
    "name": "Josetsu",
    "body": "mercury",
    "category": "Crater",
    "lat": 83.58,
    "lon": -134.93,
    "diameter_km": null,
    "origin": null,
    "keywords": [
      "mercury",
      "crater",
      "josetsu"
    ]
  },
  {
    "id": "mercury_jiménez",
    "name": "Jiménez",
    "body": "mercury",
    "category": "Crater",
    "lat": 81.83,
    "lon": -152.31,
    "diameter_km": null,
    "origin": null,
    "keywords": [
      "mercury",
      "crater",
      "jiménez"
    ]
  },
  {
    "id": "mercury_bunin",
    "name": "Bunin",
    "body": "mercury",
    "category": "Crater",
    "lat": 84.47,
    "lon": -141.76,
    "diameter_km": null,
    "origin": null,
    "keywords": [
      "mercury",
      "crater",
      "bunin"
    ]
  },
  {
    "id": "mercury_henri",
    "name": "Henri",
    "body": "mercury",
    "category": "Crater",
    "lat": 79.6808,
    "lon": 152.9831,
    "diameter_km": null,
    "origin": null,
    "keywords": [
      "mercury",
      "crater",
      "henri"
    ]
  },
  {
    "id": "mercury_mendelssohn",
    "name": "Mendelssohn",
    "body": "mercury",
    "category": "Crater",
    "lat": 70.3101,
    "lon": 102.3195,
    "diameter_km": null,
    "origin": null,
    "keywords": [
      "mercury",
      "crater",
      "mendelssohn"
    ]
  },
  {
    "id": "mercury_rustaveli",
    "name": "Rustaveli",
    "body": "mercury",
    "category": "Crater",
    "lat": 52.4119,
    "lon": 82.7381,
    "diameter_km": null,
    "origin": null,
    "keywords": [
      "mercury",
      "crater",
      "rustaveli"
    ]
  },
  {
    "id": "mercury_gordimer",
    "name": "Gordimer",
    "body": "mercury",
    "category": "Crater",
    "lat": 87.73,
    "lon": -170.9,
    "diameter_km": null,
    "origin": null,
    "keywords": [
      "mercury",
      "crater",
      "gordimer"
    ]
  },
  {
    "id": "mercury_discovery_rupes",
    "name": "Discovery Rupes",
    "body": "mercury",
    "category": "Rupes",
    "lat": -54.7,
    "lon": -37.2415,
    "diameter_km": null,
    "origin": null,
    "keywords": [
      "mercury",
      "rupes",
      "discovery rupes"
    ]
  },
  {
    "id": "mercury_izquierdo",
    "name": "Izquierdo",
    "body": "mercury",
    "category": "Crater",
    "lat": -1.6567,
    "lon": 107.0436,
    "diameter_km": null,
    "origin": null,
    "keywords": [
      "mercury",
      "crater",
      "izquierdo"
    ]
  },
  {
    "id": "mercury_hauptmann",
    "name": "Hauptmann",
    "body": "mercury",
    "category": "Crater",
    "lat": -23.6987,
    "lon": 179.5886,
    "diameter_km": null,
    "origin": null,
    "keywords": [
      "mercury",
      "crater",
      "hauptmann"
    ]
  },
  {
    "id": "mercury_yelcho_rupes",
    "name": "Yelcho Rupes",
    "body": "mercury",
    "category": "Rupes",
    "lat": 23.54,
    "lon": 135.89,
    "diameter_km": null,
    "origin": null,
    "keywords": [
      "mercury",
      "rupes",
      "yelcho rupes"
    ]
  },
  {
    "id": "mercury_debussy",
    "name": "Debussy",
    "body": "mercury",
    "category": "Crater",
    "lat": -33.9513,
    "lon": 12.5377,
    "diameter_km": null,
    "origin": null,
    "keywords": [
      "mercury",
      "crater",
      "debussy"
    ]
  },
  {
    "id": "mercury_matabei",
    "name": "Matabei",
    "body": "mercury",
    "category": "Crater",
    "lat": -39.8545,
    "lon": -14.0456,
    "diameter_km": null,
    "origin": null,
    "keywords": [
      "mercury",
      "crater",
      "matabei"
    ]
  },
  {
    "id": "mercury_hodgkins",
    "name": "Hodgkins",
    "body": "mercury",
    "category": "Crater",
    "lat": 29.1208,
    "lon": 17.9696,
    "diameter_km": null,
    "origin": null,
    "keywords": [
      "mercury",
      "crater",
      "hodgkins"
    ]
  },
  {
    "id": "mercury_navoi",
    "name": "Navoi",
    "body": "mercury",
    "category": "Crater",
    "lat": 58.8197,
    "lon": 160.4052,
    "diameter_km": null,
    "origin": null,
    "keywords": [
      "mercury",
      "crater",
      "navoi"
    ]
  },
  {
    "id": "mercury_kuiper",
    "name": "Kuiper",
    "body": "mercury",
    "category": "Crater",
    "lat": -11.3363,
    "lon": -31.3203,
    "diameter_km": null,
    "origin": null,
    "keywords": [
      "mercury",
      "crater",
      "kuiper"
    ]
  },
  {
    "id": "mercury_investigator_rupes",
    "name": "Investigator Rupes",
    "body": "mercury",
    "category": "Rupes",
    "lat": -25.39,
    "lon": 136.04,
    "diameter_km": null,
    "origin": null,
    "keywords": [
      "mercury",
      "rupes",
      "investigator rupes"
    ]
  },
  {
    "id": "mercury_chikyu_rupes",
    "name": "Chikyu Rupes",
    "body": "mercury",
    "category": "Rupes",
    "lat": -53.82,
    "lon": 100.38,
    "diameter_km": null,
    "origin": null,
    "keywords": [
      "mercury",
      "rupes",
      "chikyu rupes"
    ]
  },
  {
    "id": "mercury_raden_saleh",
    "name": "Raden Saleh",
    "body": "mercury",
    "category": "Crater",
    "lat": 2.0733,
    "lon": 158.8345,
    "diameter_km": null,
    "origin": null,
    "keywords": [
      "mercury",
      "crater",
      "raden saleh"
    ]
  },
  {
    "id": "mercury_erté",
    "name": "Erté",
    "body": "mercury",
    "category": "Crater",
    "lat": 27.443,
    "lon": -117.3342,
    "diameter_km": null,
    "origin": null,
    "keywords": [
      "mercury",
      "crater",
      "erté"
    ]
  },
  {
    "id": "mercury_han_kan",
    "name": "Han Kan",
    "body": "mercury",
    "category": "Crater",
    "lat": -72.1294,
    "lon": -146.4019,
    "diameter_km": null,
    "origin": null,
    "keywords": [
      "mercury",
      "crater",
      "han kan"
    ]
  },
  {
    "id": "mercury_kobro",
    "name": "Kobro",
    "body": "mercury",
    "category": "Crater",
    "lat": -82.16,
    "lon": 81.2163,
    "diameter_km": null,
    "origin": null,
    "keywords": [
      "mercury",
      "crater",
      "kobro"
    ]
  },
  {
    "id": "mercury_al-akhtal",
    "name": "Al-Akhtal",
    "body": "mercury",
    "category": "Crater",
    "lat": 59.3831,
    "lon": -99.7051,
    "diameter_km": null,
    "origin": null,
    "keywords": [
      "mercury",
      "crater",
      "al-akhtal"
    ]
  },
  {
    "id": "mercury_al-hamadhani",
    "name": "Al-Hamadhani",
    "body": "mercury",
    "category": "Crater",
    "lat": 39.1914,
    "lon": -91.7601,
    "diameter_km": null,
    "origin": null,
    "keywords": [
      "mercury",
      "crater",
      "al-hamadhani"
    ]
  },
  {
    "id": "mercury_aristoxenus",
    "name": "Aristoxenus",
    "body": "mercury",
    "category": "Crater",
    "lat": 83.9348,
    "lon": -17.4574,
    "diameter_km": null,
    "origin": null,
    "keywords": [
      "mercury",
      "crater",
      "aristoxenus"
    ]
  },
  {
    "id": "mercury_rūmī",
    "name": "Rūmī",
    "body": "mercury",
    "category": "Crater",
    "lat": -24.1988,
    "lon": -105.2997,
    "diameter_km": null,
    "origin": null,
    "keywords": [
      "mercury",
      "crater",
      "rūmī"
    ]
  },
  {
    "id": "mercury_bach",
    "name": "Bach",
    "body": "mercury",
    "category": "Crater",
    "lat": -69.8554,
    "lon": -103.0058,
    "diameter_km": null,
    "origin": null,
    "keywords": [
      "mercury",
      "crater",
      "bach"
    ]
  },
  {
    "id": "mercury_sadī",
    "name": "Sadī",
    "body": "mercury",
    "category": "Crater",
    "lat": -79.2413,
    "lon": -51.256,
    "diameter_km": null,
    "origin": null,
    "keywords": [
      "mercury",
      "crater",
      "sadī"
    ]
  },
  {
    "id": "mercury_belinskij",
    "name": "Belinskij",
    "body": "mercury",
    "category": "Crater",
    "lat": -77.0939,
    "lon": -103.9246,
    "diameter_km": null,
    "origin": null,
    "keywords": [
      "mercury",
      "crater",
      "belinskij"
    ]
  },
  {
    "id": "mercury_bek",
    "name": "Bek",
    "body": "mercury",
    "category": "Crater",
    "lat": 21.1606,
    "lon": -50.987,
    "diameter_km": null,
    "origin": null,
    "keywords": [
      "mercury",
      "crater",
      "bek"
    ]
  },
  {
    "id": "mercury_to_ngoc_van",
    "name": "To Ngoc Van",
    "body": "mercury",
    "category": "Crater",
    "lat": 52.4863,
    "lon": -111.7025,
    "diameter_km": null,
    "origin": null,
    "keywords": [
      "mercury",
      "crater",
      "to ngoc van"
    ]
  },
  {
    "id": "mercury_bjornson",
    "name": "Bjornson",
    "body": "mercury",
    "category": "Crater",
    "lat": 73.107,
    "lon": -113.9881,
    "diameter_km": null,
    "origin": null,
    "keywords": [
      "mercury",
      "crater",
      "bjornson"
    ]
  },
  {
    "id": "mercury_sophocles",
    "name": "Sophocles",
    "body": "mercury",
    "category": "Crater",
    "lat": -6.9513,
    "lon": -146.0355,
    "diameter_km": null,
    "origin": null,
    "keywords": [
      "mercury",
      "crater",
      "sophocles"
    ]
  },
  {
    "id": "mercury_sor_juana",
    "name": "Sor Juana",
    "body": "mercury",
    "category": "Crater",
    "lat": 50.5059,
    "lon": -25.5922,
    "diameter_km": null,
    "origin": null,
    "keywords": [
      "mercury",
      "crater",
      "sor juana"
    ]
  },
  {
    "id": "mercury_spitteler",
    "name": "Spitteler",
    "body": "mercury",
    "category": "Crater",
    "lat": -69.181,
    "lon": -60.2626,
    "diameter_km": null,
    "origin": null,
    "keywords": [
      "mercury",
      "crater",
      "spitteler"
    ]
  },
  {
    "id": "mercury_stravinsky",
    "name": "Stravinsky",
    "body": "mercury",
    "category": "Crater",
    "lat": 51.9459,
    "lon": -78.8952,
    "diameter_km": null,
    "origin": null,
    "keywords": [
      "mercury",
      "crater",
      "stravinsky"
    ]
  },
  {
    "id": "mercury_brunelleschi",
    "name": "Brunelleschi",
    "body": "mercury",
    "category": "Crater",
    "lat": -8.9379,
    "lon": -22.5108,
    "diameter_km": null,
    "origin": null,
    "keywords": [
      "mercury",
      "crater",
      "brunelleschi"
    ]
  },
  {
    "id": "mercury_botticelli",
    "name": "Botticelli",
    "body": "mercury",
    "category": "Crater",
    "lat": 63.6306,
    "lon": -112.348,
    "diameter_km": null,
    "origin": null,
    "keywords": [
      "mercury",
      "crater",
      "botticelli"
    ]
  },
  {
    "id": "mercury_hawthorne",
    "name": "Hawthorne",
    "body": "mercury",
    "category": "Crater",
    "lat": -51.3085,
    "lon": -115.3417,
    "diameter_km": null,
    "origin": null,
    "keywords": [
      "mercury",
      "crater",
      "hawthorne"
    ]
  },
  {
    "id": "mercury_gluck",
    "name": "Gluck",
    "body": "mercury",
    "category": "Crater",
    "lat": 37.953,
    "lon": -18.7779,
    "diameter_km": null,
    "origin": null,
    "keywords": [
      "mercury",
      "crater",
      "gluck"
    ]
  },
  {
    "id": "mercury_sobkou_planitia",
    "name": "Sobkou Planitia",
    "body": "mercury",
    "category": "Planitia",
    "lat": 39.0001,
    "lon": -128.0221,
    "diameter_km": null,
    "origin": null,
    "keywords": [
      "mercury",
      "planitia",
      "sobkou planitia"
    ]
  },
  {
    "id": "mercury_strindberg",
    "name": "Strindberg",
    "body": "mercury",
    "category": "Crater",
    "lat": 53.4119,
    "lon": -136.6709,
    "diameter_km": null,
    "origin": null,
    "keywords": [
      "mercury",
      "crater",
      "strindberg"
    ]
  },
  {
    "id": "mercury_sher-gil",
    "name": "Sher-Gil",
    "body": "mercury",
    "category": "Crater",
    "lat": -45.2623,
    "lon": 134.743,
    "diameter_km": null,
    "origin": null,
    "keywords": [
      "mercury",
      "crater",
      "sher-gil"
    ]
  },
  {
    "id": "mercury_ghiberti",
    "name": "Ghiberti",
    "body": "mercury",
    "category": "Crater",
    "lat": -48.5483,
    "lon": -80.1493,
    "diameter_km": null,
    "origin": null,
    "keywords": [
      "mercury",
      "crater",
      "ghiberti"
    ]
  },
  {
    "id": "mercury_abedin",
    "name": "Abedin",
    "body": "mercury",
    "category": "Crater",
    "lat": 61.732,
    "lon": -10.6611,
    "diameter_km": null,
    "origin": null,
    "keywords": [
      "mercury",
      "crater",
      "abedin"
    ]
  },
  {
    "id": "mercury_guido_d'arezzo",
    "name": "Guido d'Arezzo",
    "body": "mercury",
    "category": "Crater",
    "lat": -38.4133,
    "lon": -18.5344,
    "diameter_km": null,
    "origin": null,
    "keywords": [
      "mercury",
      "crater",
      "guido d'arezzo"
    ]
  },
  {
    "id": "mercury_hals",
    "name": "Hals",
    "body": "mercury",
    "category": "Crater",
    "lat": -54.9601,
    "lon": -114.9906,
    "diameter_km": null,
    "origin": null,
    "keywords": [
      "mercury",
      "crater",
      "hals"
    ]
  },
  {
    "id": "mercury_harunobu",
    "name": "Harunobu",
    "body": "mercury",
    "category": "Crater",
    "lat": 14.8796,
    "lon": -140.9275,
    "diameter_km": null,
    "origin": null,
    "keywords": [
      "mercury",
      "crater",
      "harunobu"
    ]
  },
  {
    "id": "mercury_derain",
    "name": "Derain",
    "body": "mercury",
    "category": "Crater",
    "lat": -9.0039,
    "lon": 19.704,
    "diameter_km": null,
    "origin": null,
    "keywords": [
      "mercury",
      "crater",
      "derain"
    ]
  },
  {
    "id": "mercury_imhotep",
    "name": "Imhotep",
    "body": "mercury",
    "category": "Crater",
    "lat": -17.9711,
    "lon": -37.4804,
    "diameter_km": null,
    "origin": null,
    "keywords": [
      "mercury",
      "crater",
      "imhotep"
    ]
  },
  {
    "id": "mercury_ruysch",
    "name": "Ruysch",
    "body": "mercury",
    "category": "Crater",
    "lat": -10.7007,
    "lon": 94.1226,
    "diameter_km": null,
    "origin": null,
    "keywords": [
      "mercury",
      "crater",
      "ruysch"
    ]
  },
  {
    "id": "mercury_sousa",
    "name": "Sousa",
    "body": "mercury",
    "category": "Crater",
    "lat": 46.6927,
    "lon": 0.634,
    "diameter_km": null,
    "origin": null,
    "keywords": [
      "mercury",
      "crater",
      "sousa"
    ]
  },
  {
    "id": "mercury_ives",
    "name": "Ives",
    "body": "mercury",
    "category": "Crater",
    "lat": -32.8714,
    "lon": -111.9896,
    "diameter_km": null,
    "origin": null,
    "keywords": [
      "mercury",
      "crater",
      "ives"
    ]
  },
  {
    "id": "mercury_holbein",
    "name": "Holbein",
    "body": "mercury",
    "category": "Crater",
    "lat": 36.1611,
    "lon": -29.8437,
    "diameter_km": null,
    "origin": null,
    "keywords": [
      "mercury",
      "crater",
      "holbein"
    ]
  },
  {
    "id": "mercury_hun_kal",
    "name": "Hun Kal",
    "body": "mercury",
    "category": "Crater",
    "lat": -0.4551,
    "lon": -20.0089,
    "diameter_km": null,
    "origin": null,
    "keywords": [
      "mercury",
      "crater",
      "hun kal"
    ]
  },
  {
    "id": "mercury_ibsen",
    "name": "Ibsen",
    "body": "mercury",
    "category": "Crater",
    "lat": -24.3472,
    "lon": -35.8902,
    "diameter_km": null,
    "origin": null,
    "keywords": [
      "mercury",
      "crater",
      "ibsen"
    ]
  },
  {
    "id": "mercury_janáček",
    "name": "Janáček",
    "body": "mercury",
    "category": "Crater",
    "lat": 55.7152,
    "lon": -154.8525,
    "diameter_km": null,
    "origin": null,
    "keywords": [
      "mercury",
      "crater",
      "janáček"
    ]
  },
  {
    "id": "mercury_gibran",
    "name": "Gibran",
    "body": "mercury",
    "category": "Crater",
    "lat": 35.7282,
    "lon": -111.4373,
    "diameter_km": null,
    "origin": null,
    "keywords": [
      "mercury",
      "crater",
      "gibran"
    ]
  },
  {
    "id": "mercury_judah_ha-levi",
    "name": "Judah Ha-Levi",
    "body": "mercury",
    "category": "Crater",
    "lat": 10.7897,
    "lon": -108.0113,
    "diameter_km": null,
    "origin": null,
    "keywords": [
      "mercury",
      "crater",
      "judah ha-levi"
    ]
  },
  {
    "id": "mercury_kenkō",
    "name": "Kenkō",
    "body": "mercury",
    "category": "Crater",
    "lat": -21.3459,
    "lon": -16.1596,
    "diameter_km": null,
    "origin": null,
    "keywords": [
      "mercury",
      "crater",
      "kenkō"
    ]
  },
  {
    "id": "mercury_nizāmī",
    "name": "Nizāmī",
    "body": "mercury",
    "category": "Crater",
    "lat": 70.4636,
    "lon": -166.7069,
    "diameter_km": null,
    "origin": null,
    "keywords": [
      "mercury",
      "crater",
      "nizāmī"
    ]
  },
  {
    "id": "mercury_sarmiento",
    "name": "Sarmiento",
    "body": "mercury",
    "category": "Crater",
    "lat": -29.272,
    "lon": 170.4156,
    "diameter_km": null,
    "origin": null,
    "keywords": [
      "mercury",
      "crater",
      "sarmiento"
    ]
  },
  {
    "id": "mercury_homer",
    "name": "Homer",
    "body": "mercury",
    "category": "Crater",
    "lat": -1.2998,
    "lon": -36.6249,
    "diameter_km": null,
    "origin": null,
    "keywords": [
      "mercury",
      "crater",
      "homer"
    ]
  },
  {
    "id": "mercury_horace",
    "name": "Horace",
    "body": "mercury",
    "category": "Crater",
    "lat": -69.3438,
    "lon": -50.0218,
    "diameter_km": null,
    "origin": null,
    "keywords": [
      "mercury",
      "crater",
      "horace"
    ]
  },
  {
    "id": "mercury_keats",
    "name": "Keats",
    "body": "mercury",
    "category": "Crater",
    "lat": -70.314,
    "lon": -156.6464,
    "diameter_km": null,
    "origin": null,
    "keywords": [
      "mercury",
      "crater",
      "keats"
    ]
  },
  {
    "id": "mercury_camões",
    "name": "Camões",
    "body": "mercury",
    "category": "Crater",
    "lat": -71.4193,
    "lon": -68.3909,
    "diameter_km": null,
    "origin": null,
    "keywords": [
      "mercury",
      "crater",
      "camões"
    ]
  },
  {
    "id": "mercury_cervantes",
    "name": "Cervantes",
    "body": "mercury",
    "category": "Crater",
    "lat": -76.0881,
    "lon": -124.2647,
    "diameter_km": null,
    "origin": null,
    "keywords": [
      "mercury",
      "crater",
      "cervantes"
    ]
  },
  {
    "id": "mercury_byron",
    "name": "Byron",
    "body": "mercury",
    "category": "Crater",
    "lat": -8.4358,
    "lon": -33.0038,
    "diameter_km": null,
    "origin": null,
    "keywords": [
      "mercury",
      "crater",
      "byron"
    ]
  },
  {
    "id": "mercury_khansa",
    "name": "Khansa",
    "body": "mercury",
    "category": "Crater",
    "lat": -58.9545,
    "lon": -51.9388,
    "diameter_km": null,
    "origin": null,
    "keywords": [
      "mercury",
      "crater",
      "khansa"
    ]
  },
  {
    "id": "mercury_petipa",
    "name": "Petipa",
    "body": "mercury",
    "category": "Crater",
    "lat": 11.5364,
    "lon": 21.0524,
    "diameter_km": null,
    "origin": null,
    "keywords": [
      "mercury",
      "crater",
      "petipa"
    ]
  },
  {
    "id": "mercury_carducci",
    "name": "Carducci",
    "body": "mercury",
    "category": "Crater",
    "lat": -36.5405,
    "lon": -90.3887,
    "diameter_km": null,
    "origin": null,
    "keywords": [
      "mercury",
      "crater",
      "carducci"
    ]
  },
  {
    "id": "mercury_philoxenus",
    "name": "Philoxenus",
    "body": "mercury",
    "category": "Crater",
    "lat": -8.6789,
    "lon": -111.7517,
    "diameter_km": null,
    "origin": null,
    "keywords": [
      "mercury",
      "crater",
      "philoxenus"
    ]
  },
  {
    "id": "mercury_chu_ta",
    "name": "Chu Ta",
    "body": "mercury",
    "category": "Crater",
    "lat": 2.0446,
    "lon": -105.6621,
    "diameter_km": null,
    "origin": null,
    "keywords": [
      "mercury",
      "crater",
      "chu ta"
    ]
  },
  {
    "id": "mercury_proust",
    "name": "Proust",
    "body": "mercury",
    "category": "Crater",
    "lat": 19.5564,
    "lon": -47.595,
    "diameter_km": null,
    "origin": null,
    "keywords": [
      "mercury",
      "crater",
      "proust"
    ]
  },
  {
    "id": "mercury_pigalle",
    "name": "Pigalle",
    "body": "mercury",
    "category": "Crater",
    "lat": -37.6465,
    "lon": -9.64099999999996,
    "diameter_km": null,
    "origin": null,
    "keywords": [
      "mercury",
      "crater",
      "pigalle"
    ]
  },
  {
    "id": "mercury_giambologna",
    "name": "Giambologna",
    "body": "mercury",
    "category": "Crater",
    "lat": -42.5775,
    "lon": -124.112,
    "diameter_km": null,
    "origin": null,
    "keywords": [
      "mercury",
      "crater",
      "giambologna"
    ]
  },
  {
    "id": "mercury_seuss",
    "name": "Seuss",
    "body": "mercury",
    "category": "Crater",
    "lat": 7.6523,
    "lon": 33.1627,
    "diameter_km": null,
    "origin": null,
    "keywords": [
      "mercury",
      "crater",
      "seuss"
    ]
  },
  {
    "id": "mercury_vieira_da_silva",
    "name": "Vieira da Silva",
    "body": "mercury",
    "category": "Crater",
    "lat": 1.5381,
    "lon": -123.4072,
    "diameter_km": null,
    "origin": null,
    "keywords": [
      "mercury",
      "crater",
      "vieira da silva"
    ]
  },
  {
    "id": "mercury_delacroix",
    "name": "Delacroix",
    "body": "mercury",
    "category": "Crater",
    "lat": -44.3248,
    "lon": -129.5066,
    "diameter_km": null,
    "origin": null,
    "keywords": [
      "mercury",
      "crater",
      "delacroix"
    ]
  },
  {
    "id": "mercury_dickens",
    "name": "Dickens",
    "body": "mercury",
    "category": "Crater",
    "lat": -73.2632,
    "lon": -155.9588,
    "diameter_km": null,
    "origin": null,
    "keywords": [
      "mercury",
      "crater",
      "dickens"
    ]
  },
  {
    "id": "mercury_donne",
    "name": "Donne",
    "body": "mercury",
    "category": "Crater",
    "lat": 2.9224,
    "lon": -14.0517,
    "diameter_km": null,
    "origin": null,
    "keywords": [
      "mercury",
      "crater",
      "donne"
    ]
  },
  {
    "id": "mercury_lennon",
    "name": "Lennon",
    "body": "mercury",
    "category": "Crater",
    "lat": -36.4142,
    "lon": 41.179,
    "diameter_km": null,
    "origin": null,
    "keywords": [
      "mercury",
      "crater",
      "lennon"
    ]
  },
  {
    "id": "mercury_stevenson",
    "name": "Stevenson",
    "body": "mercury",
    "category": "Crater",
    "lat": 2.0545,
    "lon": -143.876,
    "diameter_km": null,
    "origin": null,
    "keywords": [
      "mercury",
      "crater",
      "stevenson"
    ]
  },
  {
    "id": "mercury_despréz",
    "name": "Despréz",
    "body": "mercury",
    "category": "Crater",
    "lat": 81.0752,
    "lon": -101.2536,
    "diameter_km": null,
    "origin": null,
    "keywords": [
      "mercury",
      "crater",
      "despréz"
    ]
  },
  {
    "id": "mercury_wergeland",
    "name": "Wergeland",
    "body": "mercury",
    "category": "Crater",
    "lat": -37.9274,
    "lon": -56.3556,
    "diameter_km": null,
    "origin": null,
    "keywords": [
      "mercury",
      "crater",
      "wergeland"
    ]
  },
  {
    "id": "mercury_shevchenko",
    "name": "Shevchenko",
    "body": "mercury",
    "category": "Crater",
    "lat": -53.6414,
    "lon": -46.0153,
    "diameter_km": null,
    "origin": null,
    "keywords": [
      "mercury",
      "crater",
      "shevchenko"
    ]
  },
  {
    "id": "mercury_lermontov",
    "name": "Lermontov",
    "body": "mercury",
    "category": "Crater",
    "lat": 15.2389,
    "lon": -48.9425,
    "diameter_km": null,
    "origin": null,
    "keywords": [
      "mercury",
      "crater",
      "lermontov"
    ]
  },
  {
    "id": "mercury_verdi",
    "name": "Verdi",
    "body": "mercury",
    "category": "Crater",
    "lat": 64.3573,
    "lon": -169.7082,
    "diameter_km": null,
    "origin": null,
    "keywords": [
      "mercury",
      "crater",
      "verdi"
    ]
  },
  {
    "id": "mercury_chesterton",
    "name": "Chesterton",
    "body": "mercury",
    "category": "Crater",
    "lat": 88.5137,
    "lon": -126.8993,
    "diameter_km": null,
    "origin": null,
    "keywords": [
      "mercury",
      "crater",
      "chesterton"
    ]
  },
  {
    "id": "mercury_warhol",
    "name": "Warhol",
    "body": "mercury",
    "category": "Crater",
    "lat": -2.5456,
    "lon": -6.26859999999999,
    "diameter_km": null,
    "origin": null,
    "keywords": [
      "mercury",
      "crater",
      "warhol"
    ]
  },
  {
    "id": "mercury_joplin",
    "name": "Joplin",
    "body": "mercury",
    "category": "Crater",
    "lat": -38.5632,
    "lon": 25.5108,
    "diameter_km": null,
    "origin": null,
    "keywords": [
      "mercury",
      "crater",
      "joplin"
    ]
  },
  {
    "id": "mercury_catullus",
    "name": "Catullus",
    "body": "mercury",
    "category": "Crater",
    "lat": 21.8954,
    "lon": -67.5502,
    "diameter_km": null,
    "origin": null,
    "keywords": [
      "mercury",
      "crater",
      "catullus"
    ]
  },
  {
    "id": "mercury_leopardi",
    "name": "Leopardi",
    "body": "mercury",
    "category": "Crater",
    "lat": -72.7552,
    "lon": 175.1597,
    "diameter_km": null,
    "origin": null,
    "keywords": [
      "mercury",
      "crater",
      "leopardi"
    ]
  },
  {
    "id": "mercury_hopper",
    "name": "Hopper",
    "body": "mercury",
    "category": "Crater",
    "lat": -12.4421,
    "lon": -55.9592,
    "diameter_km": null,
    "origin": null,
    "keywords": [
      "mercury",
      "crater",
      "hopper"
    ]
  },
  {
    "id": "mercury_rodin",
    "name": "Rodin",
    "body": "mercury",
    "category": "Crater",
    "lat": 21.72,
    "lon": -18.8889,
    "diameter_km": null,
    "origin": null,
    "keywords": [
      "mercury",
      "crater",
      "rodin"
    ]
  },
  {
    "id": "mercury_li_po",
    "name": "Li Po",
    "body": "mercury",
    "category": "Crater",
    "lat": 17.1016,
    "lon": -35.6855,
    "diameter_km": null,
    "origin": null,
    "keywords": [
      "mercury",
      "crater",
      "li po"
    ]
  },
  {
    "id": "mercury_lu_hsun",
    "name": "Lu Hsun",
    "body": "mercury",
    "category": "Crater",
    "lat": -0.0102,
    "lon": -23.7636,
    "diameter_km": null,
    "origin": null,
    "keywords": [
      "mercury",
      "crater",
      "lu hsun"
    ]
  },
  {
    "id": "mercury_mansart",
    "name": "Mansart",
    "body": "mercury",
    "category": "Crater",
    "lat": 72.7212,
    "lon": -123.3553,
    "diameter_km": null,
    "origin": null,
    "keywords": [
      "mercury",
      "crater",
      "mansart"
    ]
  },
  {
    "id": "mercury_lysippus",
    "name": "Lysippus",
    "body": "mercury",
    "category": "Crater",
    "lat": 1.028,
    "lon": -132.7544,
    "diameter_km": null,
    "origin": null,
    "keywords": [
      "mercury",
      "crater",
      "lysippus"
    ]
  },
  {
    "id": "mercury_mansur",
    "name": "Mansur",
    "body": "mercury",
    "category": "Crater",
    "lat": 47.4055,
    "lon": -163.609,
    "diameter_km": null,
    "origin": null,
    "keywords": [
      "mercury",
      "crater",
      "mansur"
    ]
  },
  {
    "id": "mercury_mistral",
    "name": "Mistral",
    "body": "mercury",
    "category": "Crater",
    "lat": 4.6997,
    "lon": -54.6715,
    "diameter_km": null,
    "origin": null,
    "keywords": [
      "mercury",
      "crater",
      "mistral"
    ]
  },
  {
    "id": "mercury_mark_twain",
    "name": "Mark Twain",
    "body": "mercury",
    "category": "Crater",
    "lat": -10.9063,
    "lon": -138.2822,
    "diameter_km": null,
    "origin": null,
    "keywords": [
      "mercury",
      "crater",
      "mark twain"
    ]
  },
  {
    "id": "mercury_rilke",
    "name": "Rilke",
    "body": "mercury",
    "category": "Crater",
    "lat": -44.8142,
    "lon": -12.574,
    "diameter_km": null,
    "origin": null,
    "keywords": [
      "mercury",
      "crater",
      "rilke"
    ]
  },
  {
    "id": "mercury_mena",
    "name": "Mena",
    "body": "mercury",
    "category": "Crater",
    "lat": -0.1705,
    "lon": -124.7349,
    "diameter_km": null,
    "origin": null,
    "keywords": [
      "mercury",
      "crater",
      "mena"
    ]
  },
  {
    "id": "mercury_martí",
    "name": "Martí",
    "body": "mercury",
    "category": "Crater",
    "lat": -75.9647,
    "lon": -168.2563,
    "diameter_km": null,
    "origin": null,
    "keywords": [
      "mercury",
      "crater",
      "martí"
    ]
  },
  {
    "id": "mercury_timgad_vallis",
    "name": "Timgad Vallis",
    "body": "mercury",
    "category": "Vallis",
    "lat": 60.8847,
    "lon": 116.4379,
    "diameter_km": null,
    "origin": null,
    "keywords": [
      "mercury",
      "vallis",
      "timgad vallis"
    ]
  },
  {
    "id": "mercury_alver",
    "name": "Alver",
    "body": "mercury",
    "category": "Crater",
    "lat": -66.9709,
    "lon": 77.2464,
    "diameter_km": null,
    "origin": null,
    "keywords": [
      "mercury",
      "crater",
      "alver"
    ]
  },
  {
    "id": "mercury_enwonwu",
    "name": "Enwonwu",
    "body": "mercury",
    "category": "Crater",
    "lat": -10.0062,
    "lon": 121.9562,
    "diameter_km": null,
    "origin": null,
    "keywords": [
      "mercury",
      "crater",
      "enwonwu"
    ]
  },
  {
    "id": "mercury_molière",
    "name": "Molière",
    "body": "mercury",
    "category": "Crater",
    "lat": 15.3964,
    "lon": -17.7145,
    "diameter_km": null,
    "origin": null,
    "keywords": [
      "mercury",
      "crater",
      "molière"
    ]
  },
  {
    "id": "mercury_mickiewicz",
    "name": "Mickiewicz",
    "body": "mercury",
    "category": "Crater",
    "lat": 23.1526,
    "lon": -103.233,
    "diameter_km": null,
    "origin": null,
    "keywords": [
      "mercury",
      "crater",
      "mickiewicz"
    ]
  },
  {
    "id": "mercury_caral_vallis",
    "name": "Caral Vallis",
    "body": "mercury",
    "category": "Vallis",
    "lat": 62.6583,
    "lon": 129.29,
    "diameter_km": null,
    "origin": null,
    "keywords": [
      "mercury",
      "vallis",
      "caral vallis"
    ]
  },
  {
    "id": "mercury_polygnotus",
    "name": "Polygnotus",
    "body": "mercury",
    "category": "Crater",
    "lat": -0.1335,
    "lon": -69.2614,
    "diameter_km": null,
    "origin": null,
    "keywords": [
      "mercury",
      "crater",
      "polygnotus"
    ]
  },
  {
    "id": "mercury_mofolo",
    "name": "Mofolo",
    "body": "mercury",
    "category": "Crater",
    "lat": -37.6759,
    "lon": -28.2213,
    "diameter_km": null,
    "origin": null,
    "keywords": [
      "mercury",
      "crater",
      "mofolo"
    ]
  },
  {
    "id": "mercury_neumann",
    "name": "Neumann",
    "body": "mercury",
    "category": "Crater",
    "lat": -37.2216,
    "lon": -34.5557,
    "diameter_km": null,
    "origin": null,
    "keywords": [
      "mercury",
      "crater",
      "neumann"
    ]
  },
  {
    "id": "mercury_ovid",
    "name": "Ovid",
    "body": "mercury",
    "category": "Crater",
    "lat": -69.7718,
    "lon": -20.2265,
    "diameter_km": null,
    "origin": null,
    "keywords": [
      "mercury",
      "crater",
      "ovid"
    ]
  },
  {
    "id": "mercury_myron",
    "name": "Myron",
    "body": "mercury",
    "category": "Crater",
    "lat": 71.2118,
    "lon": -84.8602,
    "diameter_km": null,
    "origin": null,
    "keywords": [
      "mercury",
      "crater",
      "myron"
    ]
  },
  {
    "id": "mercury_murasaki",
    "name": "Murasaki",
    "body": "mercury",
    "category": "Crater",
    "lat": -12.5358,
    "lon": -30.4036,
    "diameter_km": null,
    "origin": null,
    "keywords": [
      "mercury",
      "crater",
      "murasaki"
    ]
  },
  {
    "id": "mercury_praxiteles",
    "name": "Praxiteles",
    "body": "mercury",
    "category": "Crater",
    "lat": 27.1068,
    "lon": -60.2818,
    "diameter_km": null,
    "origin": null,
    "keywords": [
      "mercury",
      "crater",
      "praxiteles"
    ]
  },
  {
    "id": "mercury_petrarch",
    "name": "Petrarch",
    "body": "mercury",
    "category": "Crater",
    "lat": -30.5224,
    "lon": -26.2886,
    "diameter_km": null,
    "origin": null,
    "keywords": [
      "mercury",
      "crater",
      "petrarch"
    ]
  },
  {
    "id": "mercury_po_ya",
    "name": "Po Ya",
    "body": "mercury",
    "category": "Crater",
    "lat": -45.92,
    "lon": -20.1724,
    "diameter_km": null,
    "origin": null,
    "keywords": [
      "mercury",
      "crater",
      "po ya"
    ]
  },
  {
    "id": "mercury_purcell",
    "name": "Purcell",
    "body": "mercury",
    "category": "Crater",
    "lat": 80.4319,
    "lon": -152.2055,
    "diameter_km": null,
    "origin": null,
    "keywords": [
      "mercury",
      "crater",
      "purcell"
    ]
  },
  {
    "id": "mercury_rameau",
    "name": "Rameau",
    "body": "mercury",
    "category": "Crater",
    "lat": -54.5849,
    "lon": -37.2387,
    "diameter_km": null,
    "origin": null,
    "keywords": [
      "mercury",
      "crater",
      "rameau"
    ]
  },
  {
    "id": "mercury_ts'ao_chan",
    "name": "Ts'ao Chan",
    "body": "mercury",
    "category": "Crater",
    "lat": -13.3079,
    "lon": -142.3473,
    "diameter_km": null,
    "origin": null,
    "keywords": [
      "mercury",
      "crater",
      "ts'ao chan"
    ]
  },
  {
    "id": "mercury_riemenschneider",
    "name": "Riemenschneider",
    "body": "mercury",
    "category": "Crater",
    "lat": -52.7504,
    "lon": -99.9485,
    "diameter_km": null,
    "origin": null,
    "keywords": [
      "mercury",
      "crater",
      "riemenschneider"
    ]
  },
  {
    "id": "mercury_rimbaud",
    "name": "Rimbaud",
    "body": "mercury",
    "category": "Crater",
    "lat": -63.6214,
    "lon": -148.8957,
    "diameter_km": null,
    "origin": null,
    "keywords": [
      "mercury",
      "crater",
      "rimbaud"
    ]
  },
  {
    "id": "mercury_shelley",
    "name": "Shelley",
    "body": "mercury",
    "category": "Crater",
    "lat": -47.6892,
    "lon": -128.2705,
    "diameter_km": null,
    "origin": null,
    "keywords": [
      "mercury",
      "crater",
      "shelley"
    ]
  },
  {
    "id": "mercury_schoenberg",
    "name": "Schoenberg",
    "body": "mercury",
    "category": "Crater",
    "lat": -16.0585,
    "lon": -136.0814,
    "diameter_km": null,
    "origin": null,
    "keywords": [
      "mercury",
      "crater",
      "schoenberg"
    ]
  },
  {
    "id": "mercury_sayat-nova",
    "name": "Sayat-Nova",
    "body": "mercury",
    "category": "Crater",
    "lat": -27.9762,
    "lon": -122.7001,
    "diameter_km": null,
    "origin": null,
    "keywords": [
      "mercury",
      "crater",
      "sayat-nova"
    ]
  },
  {
    "id": "mercury_scarlatti",
    "name": "Scarlatti",
    "body": "mercury",
    "category": "Crater",
    "lat": 40.6961,
    "lon": -101.1552,
    "diameter_km": null,
    "origin": null,
    "keywords": [
      "mercury",
      "crater",
      "scarlatti"
    ]
  },
  {
    "id": "mercury_qi_baishi",
    "name": "Qi Baishi",
    "body": "mercury",
    "category": "Crater",
    "lat": -4.3062,
    "lon": 164.3671,
    "diameter_km": null,
    "origin": null,
    "keywords": [
      "mercury",
      "crater",
      "qi baishi"
    ]
  },
  {
    "id": "mercury_waters",
    "name": "Waters",
    "body": "mercury",
    "category": "Crater",
    "lat": -8.9583,
    "lon": -105.4534,
    "diameter_km": null,
    "origin": null,
    "keywords": [
      "mercury",
      "crater",
      "waters"
    ]
  },